{
"type": "FeatureCollection",
"name": "Park___Barbeque_locations",
"crs": { "type": "name", "properties": { "name": "urn:ogc:def:crs:OGC:1.3:CRS84" } },
"features": [
{ "type": "Feature", "properties": { "OBJECTID": 1, "SAP_EQUIPMENT": "200479102", "ITEM_DESCRIPTION": "BBQ - ELECTRIC SINGLE", "ITEM_TYPE": "BARBEQUE", "SAP_FUNCTIONAL_LOCATION": "B-RE-1866-N002", "PARK_NUMBER": "D0287", "PARK_NAME": "SHEPHERD PLACE PARK", "SUBURB": "SHORNCLIFFE", "POWER_TYPE": "MAINS POWER", "NUMBER_OF_PLATES": 1, "LONG": 153.080779807, "LAT": -27.322802682 }, "geometry": { "type": "Point", "coordinates": [ 153.080779807000113, -27.322802681999974 ] } },
{ "type": "Feature", "properties": { "OBJECTID": 2, "SAP_EQUIPMENT": "100293721", "ITEM_DESCRIPTION": "BBQ - ELECTRIC DOUBLE", "ITEM_TYPE": "BARBEQUE", "SAP_FUNCTIONAL_LOCATION": "B-RE-0169-N003", "PARK_NUMBER": "D2007", "PARK_NAME": "CASCADE DRIVE PARK (NO.20)", "SUBURB": "FOREST LAKE", "POWER_TYPE": "MAINS POWER", "NUMBER_OF_PLATES": 2, "LONG": 152.96464914500001, "LAT": -27.629073494999901 }, "geometry": { "type": "Point", "coordinates": [ 152.964649145000067, -27.629073494999943 ] } },
{ "type": "Feature", "properties": { "OBJECTID": 3, "SAP_EQUIPMENT": "200488746", "ITEM_DESCRIPTION": "BBQ - ELECTRIC SINGLE", "ITEM_TYPE": "BARBEQUE", "SAP_FUNCTIONAL_LOCATION": "B-RE-0456-N001", "PARK_NUMBER": "D1576", "PARK_NAME": "PAT RAFTER PARK", "SUBURB": "CARSELDINE", "POWER_TYPE": "MAINS POWER", "NUMBER_OF_PLATES": 1, "LONG": 153.00951625799999, "LAT": -27.341439769000001 }, "geometry": { "type": "Point", "coordinates": [ 153.009516258000076, -27.341439768999976 ] } },
{ "type": "Feature", "properties": { "OBJECTID": 4, "SAP_EQUIPMENT": "200482197", "ITEM_DESCRIPTION": "BBQ - ELECTRIC SINGLE", "ITEM_TYPE": "BARBEQUE", "SAP_FUNCTIONAL_LOCATION": "B-RE-0394-N001", "PARK_NUMBER": "D1551", "PARK_NAME": "SVOBODA PARK", "SUBURB": "KURABY", "POWER_TYPE": "MAINS POWER", "NUMBER_OF_PLATES": 1, "LONG": 153.097590508, "LAT": -27.605581496 }, "geometry": { "type": "Point", "coordinates": [ 153.097590508000053, -27.605581495999957 ] } },
{ "type": "Feature", "properties": { "OBJECTID": 5, "SAP_EQUIPMENT": "200482213", "ITEM_DESCRIPTION": "BBQ - ELECTRIC SINGLE", "ITEM_TYPE": "BARBEQUE", "SAP_FUNCTIONAL_LOCATION": "B-RE-1978-N006", "PARK_NUMBER": "D0170", "PARK_NAME": "YOWOGGERA  PARK", "SUBURB": "ALBION", "POWER_TYPE": "MAINS POWER", "NUMBER_OF_PLATES": 1, "LONG": 153.042235713, "LAT": -27.4379616169999 }, "geometry": { "type": "Point", "coordinates": [ 153.042235713000082, -27.437961616999928 ] } },
{ "type": "Feature", "properties": { "OBJECTID": 6, "SAP_EQUIPMENT": "200482228", "ITEM_DESCRIPTION": "BBQ - ELECTRIC SINGLE", "ITEM_TYPE": "BARBEQUE", "SAP_FUNCTIONAL_LOCATION": "B-RE-1716-N013", "PARK_NUMBER": "D0208", "PARK_NAME": "TERALBA PARK", "SUBURB": "EVERTON PARK", "POWER_TYPE": "MAINS POWER", "NUMBER_OF_PLATES": 1, "LONG": 152.98020318299999, "LAT": -27.402602756 }, "geometry": { "type": "Point", "coordinates": [ 152.980203183000071, -27.402602755999965 ] } },
{ "type": "Feature", "properties": { "OBJECTID": 7, "SAP_EQUIPMENT": "100268997", "ITEM_DESCRIPTION": "BBQ - ELECTRIC DOUBLE", "ITEM_TYPE": "BARBEQUE", "SAP_FUNCTIONAL_LOCATION": "B-RE-1738-N004", "PARK_NUMBER": "D0160", "PARK_NAME": "WALTON BRIDGE RESERVE", "SUBURB": "THE GAP", "POWER_TYPE": "MAINS POWER", "NUMBER_OF_PLATES": 2, "LONG": 152.953892344, "LAT": -27.444455140999899 }, "geometry": { "type": "Point", "coordinates": [ 152.95389234400011, -27.444455140999935 ] } },
{ "type": "Feature", "properties": { "OBJECTID": 8, "SAP_EQUIPMENT": "200472641", "ITEM_DESCRIPTION": "BBQ - ELECTRIC DOUBLE", "ITEM_TYPE": "BARBEQUE", "SAP_FUNCTIONAL_LOCATION": "B-RE-2014-N005", "PARK_NUMBER": "D0311", "PARK_NAME": "NOSWORTHY PARK", "SUBURB": "CORINDA", "POWER_TYPE": "MAINS POWER", "NUMBER_OF_PLATES": 2, "LONG": 152.98761300800001, "LAT": -27.539580853 }, "geometry": { "type": "Point", "coordinates": [ 152.987613008000039, -27.539580852999961 ] } },
{ "type": "Feature", "properties": { "OBJECTID": 9, "SAP_EQUIPMENT": "100269338", "ITEM_DESCRIPTION": "BBQ - ELECTRIC DOUBLE", "ITEM_TYPE": "BARBEQUE", "SAP_FUNCTIONAL_LOCATION": "B-RE-1531-N009", "PARK_NUMBER": "D0631", "PARK_NAME": "KEPERRA PICNIC GROUND PARK", "SUBURB": "FERNY GROVE", "POWER_TYPE": "MAINS POWER", "NUMBER_OF_PLATES": 2, "LONG": 152.941578432, "LAT": -27.412268148 }, "geometry": { "type": "Point", "coordinates": [ 152.941578432000028, -27.412268147999953 ] } },
{ "type": "Feature", "properties": { "OBJECTID": 10, "SAP_EQUIPMENT": "200500405", "ITEM_DESCRIPTION": "BBQ - ELECTRIC SINGLE", "ITEM_TYPE": "BARBEQUE", "SAP_FUNCTIONAL_LOCATION": "B-RE-2077-N001", "PARK_NUMBER": "D1242", "PARK_NAME": "MING-SHAN PARK", "SUBURB": "CALAMVALE", "POWER_TYPE": "MAINS POWER", "NUMBER_OF_PLATES": 1, "LONG": 153.05757330599999, "LAT": -27.6314106089999 }, "geometry": { "type": "Point", "coordinates": [ 153.057573306000108, -27.631410608999943 ] } },
{ "type": "Feature", "properties": { "OBJECTID": 11, "SAP_EQUIPMENT": "200500304", "ITEM_DESCRIPTION": "BBQ - ELECTRIC SINGLE", "ITEM_TYPE": "BARBEQUE", "SAP_FUNCTIONAL_LOCATION": "B-RE-1806-N001", "PARK_NUMBER": "D0016", "PARK_NAME": "RILATT PARK", "SUBURB": "WAVELL HEIGHTS", "POWER_TYPE": "MAINS POWER", "NUMBER_OF_PLATES": 1, "LONG": 153.04798215700001, "LAT": -27.392166884999899 }, "geometry": { "type": "Point", "coordinates": [ 153.047982157000092, -27.392166884999938 ] } },
{ "type": "Feature", "properties": { "OBJECTID": 12, "SAP_EQUIPMENT": "100119694", "ITEM_DESCRIPTION": "BBQ - ELECTRIC SINGLE", "ITEM_TYPE": "BARBEQUE", "SAP_FUNCTIONAL_LOCATION": "B-RE-2560-N001", "PARK_NUMBER": "D1120", "PARK_NAME": "STRETTON COMMUNITY PARK", "SUBURB": "STRETTON", "POWER_TYPE": "MAINS POWER", "NUMBER_OF_PLATES": 1, "LONG": 153.068846802, "LAT": -27.6175963969999 }, "geometry": { "type": "Point", "coordinates": [ 153.068846802000053, -27.617596396999943 ] } },
{ "type": "Feature", "properties": { "OBJECTID": 13, "SAP_EQUIPMENT": "200488161", "ITEM_DESCRIPTION": "BBQ - ELECTRIC SINGLE", "ITEM_TYPE": "BARBEQUE", "SAP_FUNCTIONAL_LOCATION": "B-RE-2628-N007", "PARK_NUMBER": "D0995", "PARK_NAME": "WYNNUM WADING POOL PARK", "SUBURB": "WYNNUM", "POWER_TYPE": "MAINS POWER", "NUMBER_OF_PLATES": 1, "LONG": 153.176322486, "LAT": -27.441646103 }, "geometry": { "type": "Point", "coordinates": [ 153.176322486000117, -27.441646102999982 ] } },
{ "type": "Feature", "properties": { "OBJECTID": 14, "SAP_EQUIPMENT": "200489468", "ITEM_DESCRIPTION": "BBQ - ELECTRIC SINGLE", "ITEM_TYPE": "BARBEQUE", "SAP_FUNCTIONAL_LOCATION": "B-RE-2451-N002", "PARK_NUMBER": "D0759", "PARK_NAME": "SHOWGROUND PARK", "SUBURB": "NUDGEE", "POWER_TYPE": "MAINS POWER", "NUMBER_OF_PLATES": 1, "LONG": 153.08524688899999, "LAT": -27.365040434000001 }, "geometry": { "type": "Point", "coordinates": [ 153.085246889000018, -27.36504043399998 ] } },
{ "type": "Feature", "properties": { "OBJECTID": 15, "SAP_EQUIPMENT": "200489542", "ITEM_DESCRIPTION": "BBQ - ELECTRIC DOUBLE", "ITEM_TYPE": "BARBEQUE", "SAP_FUNCTIONAL_LOCATION": "B-RE-1493-N001", "PARK_NUMBER": "D0512", "PARK_NAME": "MELROSE PARK", "SUBURB": "WOOLOOWIN", "POWER_TYPE": "MAINS POWER", "NUMBER_OF_PLATES": 2, "LONG": 153.04452607600001, "LAT": -27.4132713619999 }, "geometry": { "type": "Point", "coordinates": [ 153.044526076000011, -27.413271361999932 ] } },
{ "type": "Feature", "properties": { "OBJECTID": 16, "SAP_EQUIPMENT": "200483284", "ITEM_DESCRIPTION": "BBQ - ELECTRIC DOUBLE", "ITEM_TYPE": "BARBEQUE", "SAP_FUNCTIONAL_LOCATION": "B-RE-0673-N013", "PARK_NUMBER": "D1845", "PARK_NAME": "ROCKS RIVERSIDE PARK", "SUBURB": "SEVENTEEN MILE ROCKS", "POWER_TYPE": "MAINS POWER", "NUMBER_OF_PLATES": 2, "LONG": 152.96198633399999, "LAT": -27.541755339000002 }, "geometry": { "type": "Point", "coordinates": [ 152.961986334000017, -27.541755338999963 ] } },
{ "type": "Feature", "properties": { "OBJECTID": 17, "SAP_EQUIPMENT": "200486834", "ITEM_DESCRIPTION": "BBQ - ELECTRIC DOUBLE", "ITEM_TYPE": "BARBEQUE", "SAP_FUNCTIONAL_LOCATION": "B-RE-1768-N003", "PARK_NUMBER": "D0219", "PARK_NAME": "JOHN STEWART MEMORIAL PARK", "SUBURB": "BALD HILLS", "POWER_TYPE": "MAINS POWER", "NUMBER_OF_PLATES": 2, "LONG": 153.00891519300001, "LAT": -27.326429640999901 }, "geometry": { "type": "Point", "coordinates": [ 153.008915193000121, -27.326429640999947 ] } },
{ "type": "Feature", "properties": { "OBJECTID": 18, "SAP_EQUIPMENT": "200480359", "ITEM_DESCRIPTION": "BBQ - ELECTRIC SINGLE", "ITEM_TYPE": "BARBEQUE", "SAP_FUNCTIONAL_LOCATION": "B-RE-1710-N004", "PARK_NUMBER": "D0134", "PARK_NAME": "WILLMINGTON PARK", "SUBURB": "ALDERLEY", "POWER_TYPE": "MAINS POWER", "NUMBER_OF_PLATES": 1, "LONG": 152.99298445, "LAT": -27.427183539999898 }, "geometry": { "type": "Point", "coordinates": [ 152.992984450000108, -27.42718353999993 ] } },
{ "type": "Feature", "properties": { "OBJECTID": 19, "SAP_EQUIPMENT": "200480407", "ITEM_DESCRIPTION": "BBQ - WOOD SINGLE", "ITEM_TYPE": "BARBEQUE", "SAP_FUNCTIONAL_LOCATION": "B-RE-1499-N002", "PARK_NUMBER": "D0434", "PARK_NAME": "BROADWATER PICNIC GROUND PARK", "SUBURB": "MANSFIELD", "POWER_TYPE": "WOOD FIRED", "NUMBER_OF_PLATES": 1, "LONG": 153.11173398899999, "LAT": -27.5434409 }, "geometry": { "type": "Point", "coordinates": [ 153.111733989000072, -27.54344089999995 ] } },
{ "type": "Feature", "properties": { "OBJECTID": 20, "SAP_EQUIPMENT": "200480410", "ITEM_DESCRIPTION": "BBQ - ELECTRIC SINGLE", "ITEM_TYPE": "BARBEQUE", "SAP_FUNCTIONAL_LOCATION": "B-RE-1764-N001", "PARK_NUMBER": "D0224", "PARK_NAME": "LEN TREZONA PARK", "SUBURB": "ZILLMERE", "POWER_TYPE": "MAINS POWER", "NUMBER_OF_PLATES": 1, "LONG": 153.03696664099999, "LAT": -27.36337229 }, "geometry": { "type": "Point", "coordinates": [ 153.036966641000049, -27.363372289999973 ] } },
{ "type": "Feature", "properties": { "OBJECTID": 21, "SAP_EQUIPMENT": "200488376", "ITEM_DESCRIPTION": "BBQ - ELECTRIC SINGLE", "ITEM_TYPE": "BARBEQUE", "SAP_FUNCTIONAL_LOCATION": "B-RE-0093-N003", "PARK_NUMBER": "D2083", "PARK_NAME": "SUNSET PLACE PARK", "SUBURB": "MCDOWALL", "POWER_TYPE": "MAINS POWER", "NUMBER_OF_PLATES": 1, "LONG": 152.98400119799999, "LAT": -27.381486207999998 }, "geometry": { "type": "Point", "coordinates": [ 152.984001198000101, -27.381486207999956 ] } },
{ "type": "Feature", "properties": { "OBJECTID": 22, "SAP_EQUIPMENT": "200488486", "ITEM_DESCRIPTION": "BBQ - ELECTRIC SINGLE", "ITEM_TYPE": "BARBEQUE", "SAP_FUNCTIONAL_LOCATION": "B-RE-1442-N001", "PARK_NUMBER": "D0492", "PARK_NAME": "DOWNEY PARK", "SUBURB": "WINDSOR", "POWER_TYPE": "MAINS POWER", "NUMBER_OF_PLATES": 1, "LONG": 153.02518529400001, "LAT": -27.441539986999899 }, "geometry": { "type": "Point", "coordinates": [ 153.025185294000039, -27.441539986999942 ] } },
{ "type": "Feature", "properties": { "OBJECTID": 23, "SAP_EQUIPMENT": "200488506", "ITEM_DESCRIPTION": "BBQ - ELECTRIC DOUBLE", "ITEM_TYPE": "BARBEQUE", "SAP_FUNCTIONAL_LOCATION": "B-RE-1559-N005", "PARK_NUMBER": "D0678", "PARK_NAME": "COL BENNET PARK", "SUBURB": "ALGESTER", "POWER_TYPE": "MAINS POWER", "NUMBER_OF_PLATES": 2, "LONG": 153.02781474400001, "LAT": -27.6159986669999 }, "geometry": { "type": "Point", "coordinates": [ 153.027814744000011, -27.615998666999928 ] } },
{ "type": "Feature", "properties": { "OBJECTID": 24, "SAP_EQUIPMENT": "200488532", "ITEM_DESCRIPTION": "BBQ - ELECTRIC SINGLE", "ITEM_TYPE": "BARBEQUE", "SAP_FUNCTIONAL_LOCATION": "B-RE-0459-N005", "PARK_NUMBER": "D1572", "PARK_NAME": "WAKERLEY PARK", "SUBURB": "WAKERLEY", "POWER_TYPE": "MAINS POWER", "NUMBER_OF_PLATES": 1, "LONG": 153.15047367099999, "LAT": -27.486505501 }, "geometry": { "type": "Point", "coordinates": [ 153.1504736710001, -27.486505500999954 ] } },
{ "type": "Feature", "properties": { "OBJECTID": 25, "SAP_EQUIPMENT": "200472224", "ITEM_DESCRIPTION": "BBQ - ELECTRIC SINGLE", "ITEM_TYPE": "BARBEQUE", "SAP_FUNCTIONAL_LOCATION": "B-RE-1590-N008", "PARK_NUMBER": "D0723", "PARK_NAME": "CARINDALE RECREATION RESERVE", "SUBURB": "CARINDALE", "POWER_TYPE": "MAINS POWER", "NUMBER_OF_PLATES": 1, "LONG": 153.10858172900001, "LAT": -27.496984552000001 }, "geometry": { "type": "Point", "coordinates": [ 153.108581729000093, -27.496984551999958 ] } },
{ "type": "Feature", "properties": { "OBJECTID": 26, "SAP_EQUIPMENT": "100294941", "ITEM_DESCRIPTION": "BBQ - ELECTRIC SINGLE", "ITEM_TYPE": "BARBEQUE", "SAP_FUNCTIONAL_LOCATION": "B-RE-0352-N001", "PARK_NUMBER": "D2232", "PARK_NAME": "SHERIFF PARK", "SUBURB": "WAKERLEY", "POWER_TYPE": "MAINS POWER", "NUMBER_OF_PLATES": 1, "LONG": 153.163313679, "LAT": -27.486985511999901 }, "geometry": { "type": "Point", "coordinates": [ 153.163313679000112, -27.486985511999933 ] } },
{ "type": "Feature", "properties": { "OBJECTID": 27, "SAP_EQUIPMENT": "200504674", "ITEM_DESCRIPTION": "BBQ - WOOD SINGLE", "ITEM_TYPE": "BARBEQUE", "SAP_FUNCTIONAL_LOCATION": "B-RE-2045-N002", "PARK_NUMBER": "D1316", "PARK_NAME": "FREE STREET PARK", "SUBURB": "NEWMARKET", "POWER_TYPE": "WOOD FIRED", "NUMBER_OF_PLATES": 1, "LONG": 153.00276733300001, "LAT": -27.4443888079999 }, "geometry": { "type": "Point", "coordinates": [ 153.002767333000065, -27.444388807999928 ] } },
{ "type": "Feature", "properties": { "OBJECTID": 28, "SAP_EQUIPMENT": "200504226", "ITEM_DESCRIPTION": "BBQ - WOOD SINGLE", "ITEM_TYPE": "BARBEQUE", "SAP_FUNCTIONAL_LOCATION": "B-RE-0620-N006", "PARK_NUMBER": "D1810", "PARK_NAME": "PACIFIC PARADE PARK", "SUBURB": "FOREST LAKE", "POWER_TYPE": "WOOD FIRED", "NUMBER_OF_PLATES": 1, "LONG": 152.97740417, "LAT": -27.6281206049999 }, "geometry": { "type": "Point", "coordinates": [ 152.977404170000113, -27.628120604999935 ] } },
{ "type": "Feature", "properties": { "OBJECTID": 29, "SAP_EQUIPMENT": "200515180", "ITEM_DESCRIPTION": "BBQ - WOOD DOUBLE", "ITEM_TYPE": "BARBEQUE", "SAP_FUNCTIONAL_LOCATION": "B-RE-2387-N004", "PARK_NUMBER": "D0911", "PARK_NAME": "ANNA SMITH OBE QUOTA PARK", "SUBURB": "CARINDALE", "POWER_TYPE": "WOOD FIRED", "NUMBER_OF_PLATES": 2, "LONG": 153.10732695799999, "LAT": -27.50587759 }, "geometry": { "type": "Point", "coordinates": [ 153.107326958000044, -27.505877589999955 ] } },
{ "type": "Feature", "properties": { "OBJECTID": 30, "SAP_EQUIPMENT": "200513485", "ITEM_DESCRIPTION": "BBQ - ELECTRIC SINGLE", "ITEM_TYPE": "BARBEQUE", "SAP_FUNCTIONAL_LOCATION": "B-RE-0572-N009", "PARK_NUMBER": "D1763", "PARK_NAME": "COLMSLIE BEACH RESERVE", "SUBURB": "MURARRIE", "POWER_TYPE": "MAINS POWER", "NUMBER_OF_PLATES": 1, "LONG": 153.09243355500001, "LAT": -27.449728146000002 }, "geometry": { "type": "Point", "coordinates": [ 153.092433555000071, -27.449728145999984 ] } },
{ "type": "Feature", "properties": { "OBJECTID": 31, "SAP_EQUIPMENT": "100264661", "ITEM_DESCRIPTION": "BBQ - GAS DOUBLE (SOLAR IGNITION)", "ITEM_TYPE": "BARBEQUE", "SAP_FUNCTIONAL_LOCATION": "B-RE-1901-N034", "PARK_NUMBER": "D0249", "PARK_NAME": "MT COOT-THA RESERVE", "SUBURB": "MOUNT COOT-THA", "POWER_TYPE": "BOTTLED GAS", "NUMBER_OF_PLATES": 2, "LONG": 152.965762504, "LAT": -27.4741211649999 }, "geometry": { "type": "Point", "coordinates": [ 152.965762504000054, -27.474121164999929 ] } },
{ "type": "Feature", "properties": { "OBJECTID": 32, "SAP_EQUIPMENT": "200519789", "ITEM_DESCRIPTION": "BBQ - ELECTRIC SINGLE", "ITEM_TYPE": "BARBEQUE", "SAP_FUNCTIONAL_LOCATION": "B-RE-0343-N002", "PARK_NUMBER": "D2472", "PARK_NAME": "MAIDSTONE STREET PARK", "SUBURB": "KELVIN GROVE", "POWER_TYPE": "MAINS POWER", "NUMBER_OF_PLATES": 1, "LONG": 153.01590655499999, "LAT": -27.454757472000001 }, "geometry": { "type": "Point", "coordinates": [ 153.015906555000015, -27.454757471999983 ] } },
{ "type": "Feature", "properties": { "OBJECTID": 33, "SAP_EQUIPMENT": "200474557", "ITEM_DESCRIPTION": "BBQ - WOOD SINGLE", "ITEM_TYPE": "BARBEQUE", "SAP_FUNCTIONAL_LOCATION": "B-RE-1499-N008", "PARK_NUMBER": "D0434", "PARK_NAME": "BROADWATER PICNIC GROUND PARK", "SUBURB": "MANSFIELD", "POWER_TYPE": "WOOD FIRED", "NUMBER_OF_PLATES": 1, "LONG": 153.11193301700001, "LAT": -27.544769013 }, "geometry": { "type": "Point", "coordinates": [ 153.111933017000069, -27.54476901299995 ] } },
{ "type": "Feature", "properties": { "OBJECTID": 34, "SAP_EQUIPMENT": "100115257", "ITEM_DESCRIPTION": "BBQ - ELECTRIC DOUBLE", "ITEM_TYPE": "BARBEQUE", "SAP_FUNCTIONAL_LOCATION": "B-RE-1501-N006", "PARK_NUMBER": "D0430", "PARK_NAME": "MOORE PARK", "SUBURB": "INDOOROOPILLY", "POWER_TYPE": "MAINS POWER", "NUMBER_OF_PLATES": 2, "LONG": 152.965191425, "LAT": -27.498571711 }, "geometry": { "type": "Point", "coordinates": [ 152.965191425000057, -27.498571710999954 ] } },
{ "type": "Feature", "properties": { "OBJECTID": 35, "SAP_EQUIPMENT": "200524318", "ITEM_DESCRIPTION": "BBQ - ELECTRIC SINGLE", "ITEM_TYPE": "BARBEQUE", "SAP_FUNCTIONAL_LOCATION": "B-RE-1717-N005", "PARK_NUMBER": "D0119", "PARK_NAME": "C.B.MOTT PARK", "SUBURB": "HOLLAND PARK", "POWER_TYPE": "MAINS POWER", "NUMBER_OF_PLATES": 1, "LONG": 153.05773116500001, "LAT": -27.515987223 }, "geometry": { "type": "Point", "coordinates": [ 153.057731165000064, -27.515987222999968 ] } },
{ "type": "Feature", "properties": { "OBJECTID": 36, "SAP_EQUIPMENT": "200488295", "ITEM_DESCRIPTION": "BBQ - ELECTRIC SINGLE", "ITEM_TYPE": "BARBEQUE", "SAP_FUNCTIONAL_LOCATION": "B-RE-0596-N001", "PARK_NUMBER": "D1902", "PARK_NAME": "THOMAS McBRIDE PARK", "SUBURB": "PINKENBA", "POWER_TYPE": "MAINS POWER", "NUMBER_OF_PLATES": 1, "LONG": 153.12003624100001, "LAT": -27.420190271 }, "geometry": { "type": "Point", "coordinates": [ 153.120036241000093, -27.420190270999967 ] } },
{ "type": "Feature", "properties": { "OBJECTID": 37, "SAP_EQUIPMENT": "100265673", "ITEM_DESCRIPTION": "BBQ - ELECTRIC DOUBLE", "ITEM_TYPE": "BARBEQUE", "SAP_FUNCTIONAL_LOCATION": "B-RE-2152-N001", "PARK_NUMBER": "D1160", "PARK_NAME": "GARRETT PARK", "SUBURB": "RUNCORN", "POWER_TYPE": "MAINS POWER", "NUMBER_OF_PLATES": 2, "LONG": 153.082018852, "LAT": -27.589842276999899 }, "geometry": { "type": "Point", "coordinates": [ 153.082018852000033, -27.589842276999946 ] } },
{ "type": "Feature", "properties": { "OBJECTID": 38, "SAP_EQUIPMENT": "200528664", "ITEM_DESCRIPTION": "BBQ - ELECTRIC SINGLE", "ITEM_TYPE": "BARBEQUE", "SAP_FUNCTIONAL_LOCATION": "B-RE-1855-N006", "PARK_NUMBER": "D0054", "PARK_NAME": "LAVARACK PARK", "SUBURB": "CAMP HILL", "POWER_TYPE": "MAINS POWER", "NUMBER_OF_PLATES": 1, "LONG": 153.084020219, "LAT": -27.489599685999998 }, "geometry": { "type": "Point", "coordinates": [ 153.084020219000081, -27.489599685999963 ] } },
{ "type": "Feature", "properties": { "OBJECTID": 39, "SAP_EQUIPMENT": "200529232", "ITEM_DESCRIPTION": "BBQ - ELECTRIC SINGLE", "ITEM_TYPE": "BARBEQUE", "SAP_FUNCTIONAL_LOCATION": "B-RE-0218-N002", "PARK_NUMBER": "D2996", "PARK_NAME": "GREY GUMS PARK", "SUBURB": "KELVIN GROVE", "POWER_TYPE": "MAINS POWER", "NUMBER_OF_PLATES": 1, "LONG": 153.01343582800001, "LAT": -27.451570139000001 }, "geometry": { "type": "Point", "coordinates": [ 153.01343582800007, -27.451570138999955 ] } },
{ "type": "Feature", "properties": { "OBJECTID": 40, "SAP_EQUIPMENT": "200529251", "ITEM_DESCRIPTION": "BBQ - ELECTRIC DOUBLE", "ITEM_TYPE": "BARBEQUE", "SAP_FUNCTIONAL_LOCATION": "B-RE-0673-N022", "PARK_NUMBER": "D1845", "PARK_NAME": "ROCKS RIVERSIDE PARK", "SUBURB": "SEVENTEEN MILE ROCKS", "POWER_TYPE": "MAINS POWER", "NUMBER_OF_PLATES": 2, "LONG": 152.96350383500001, "LAT": -27.543593571 }, "geometry": { "type": "Point", "coordinates": [ 152.963503835000097, -27.543593570999974 ] } },
{ "type": "Feature", "properties": { "OBJECTID": 41, "SAP_EQUIPMENT": "200542877", "ITEM_DESCRIPTION": "BBQ - GAS DOUBLE (SOLAR IGNITION)", "ITEM_TYPE": "BARBEQUE", "SAP_FUNCTIONAL_LOCATION": "B-RE-1901-N008", "PARK_NUMBER": "D0249", "PARK_NAME": "MT COOT-THA RESERVE", "SUBURB": "MOUNT COOT-THA", "POWER_TYPE": "BOTTLED GAS", "NUMBER_OF_PLATES": 2, "LONG": 152.958022817, "LAT": -27.467366467000002 }, "geometry": { "type": "Point", "coordinates": [ 152.958022817000028, -27.467366466999977 ] } },
{ "type": "Feature", "properties": { "OBJECTID": 42, "SAP_EQUIPMENT": "200541703", "ITEM_DESCRIPTION": "BBQ - ELECTRIC SINGLE", "ITEM_TYPE": "BARBEQUE", "SAP_FUNCTIONAL_LOCATION": "B-RE-0283-N004", "PARK_NUMBER": "D2176", "PARK_NAME": "FORT ROAD BUSHLANDS", "SUBURB": "OXLEY", "POWER_TYPE": "MAINS POWER", "NUMBER_OF_PLATES": 1, "LONG": 152.96525365299999, "LAT": -27.546812529 }, "geometry": { "type": "Point", "coordinates": [ 152.965253653000104, -27.546812528999965 ] } },
{ "type": "Feature", "properties": { "OBJECTID": 43, "SAP_EQUIPMENT": "200548811", "ITEM_DESCRIPTION": "BBQ - ELECTRIC SINGLE", "ITEM_TYPE": "BARBEQUE", "SAP_FUNCTIONAL_LOCATION": "B-RE-1789-N004", "PARK_NUMBER": "D0036", "PARK_NAME": "HARDCASTLE PARK", "SUBURB": "HAWTHORNE", "POWER_TYPE": "MAINS POWER", "NUMBER_OF_PLATES": 1, "LONG": 153.05392181400001, "LAT": -27.460386861 }, "geometry": { "type": "Point", "coordinates": [ 153.053921814000091, -27.460386860999961 ] } },
{ "type": "Feature", "properties": { "OBJECTID": 44, "SAP_EQUIPMENT": "200550667", "ITEM_DESCRIPTION": "BBQ - WOOD SINGLE", "ITEM_TYPE": "BARBEQUE", "SAP_FUNCTIONAL_LOCATION": "B-RE-1604-N008", "PARK_NUMBER": "D0640", "PARK_NAME": "MEADOWLANDS PICNIC GROUND PARK", "SUBURB": "TINGALPA", "POWER_TYPE": "WOOD FIRED", "NUMBER_OF_PLATES": 1, "LONG": 153.12150396300001, "LAT": -27.493259897000002 }, "geometry": { "type": "Point", "coordinates": [ 153.121503963, -27.493259896999973 ] } },
{ "type": "Feature", "properties": { "OBJECTID": 45, "SAP_EQUIPMENT": "200554622", "ITEM_DESCRIPTION": "BBQ - ELECTRIC SINGLE", "ITEM_TYPE": "BARBEQUE", "SAP_FUNCTIONAL_LOCATION": "B-RE-0122-N002", "PARK_NUMBER": "D1961", "PARK_NAME": "BUCKINGHAM PLACE PARK", "SUBURB": "EIGHT MILE PLAINS", "POWER_TYPE": "MAINS POWER", "NUMBER_OF_PLATES": 1, "LONG": 153.096499193, "LAT": -27.5750516159999 }, "geometry": { "type": "Point", "coordinates": [ 153.096499193000113, -27.575051615999939 ] } },
{ "type": "Feature", "properties": { "OBJECTID": 46, "SAP_EQUIPMENT": "200476250", "ITEM_DESCRIPTION": "BBQ - ELECTRIC DOUBLE", "ITEM_TYPE": "BARBEQUE", "SAP_FUNCTIONAL_LOCATION": "B-RE-1936-N002", "PARK_NUMBER": "D0408", "PARK_NAME": "GUYATT PARK", "SUBURB": "ST LUCIA", "POWER_TYPE": "MAINS POWER", "NUMBER_OF_PLATES": 2, "LONG": 153.00172236200001, "LAT": -27.492758004999899 }, "geometry": { "type": "Point", "coordinates": [ 153.00172236200001, -27.492758004999928 ] } },
{ "type": "Feature", "properties": { "OBJECTID": 47, "SAP_EQUIPMENT": "200560980", "ITEM_DESCRIPTION": "BBQ - ELECTRIC SINGLE", "ITEM_TYPE": "BARBEQUE", "SAP_FUNCTIONAL_LOCATION": "B-RE-1656-N001", "PARK_NUMBER": "D0707", "PARK_NAME": "TAYLOR BRIDGE RESERVE", "SUBURB": "CHELMER", "POWER_TYPE": "MAINS POWER", "NUMBER_OF_PLATES": 1, "LONG": 152.97286431399999, "LAT": -27.506167988000001 }, "geometry": { "type": "Point", "coordinates": [ 152.972864314000049, -27.506167987999959 ] } },
{ "type": "Feature", "properties": { "OBJECTID": 48, "SAP_EQUIPMENT": "200561119", "ITEM_DESCRIPTION": "BBQ - ELECTRIC SINGLE", "ITEM_TYPE": "BARBEQUE", "SAP_FUNCTIONAL_LOCATION": "B-RE-1697-N005", "PARK_NUMBER": "D0127", "PARK_NAME": "SEDGLEY PARK", "SUBURB": "ALDERLEY", "POWER_TYPE": "MAINS POWER", "NUMBER_OF_PLATES": 1, "LONG": 153.00496263100001, "LAT": -27.428391136999899 }, "geometry": { "type": "Point", "coordinates": [ 153.004962631000012, -27.428391136999949 ] } },
{ "type": "Feature", "properties": { "OBJECTID": 49, "SAP_EQUIPMENT": "200477175", "ITEM_DESCRIPTION": "BBQ - WOOD SINGLE", "ITEM_TYPE": "BARBEQUE", "SAP_FUNCTIONAL_LOCATION": "B-RE-1471-N004", "PARK_NUMBER": "D0371", "PARK_NAME": "PRINCESS STREET PARK (NOS.5-21)", "SUBURB": "FAIRFIELD", "POWER_TYPE": "WOOD FIRED", "NUMBER_OF_PLATES": 1, "LONG": 153.02309281300001, "LAT": -27.50102176 }, "geometry": { "type": "Point", "coordinates": [ 153.023092813000062, -27.501021759999958 ] } },
{ "type": "Feature", "properties": { "OBJECTID": 50, "SAP_EQUIPMENT": "200477079", "ITEM_DESCRIPTION": "BBQ - ELECTRIC SINGLE", "ITEM_TYPE": "BARBEQUE", "SAP_FUNCTIONAL_LOCATION": "B-RE-1834-N004", "PARK_NUMBER": "D0078", "PARK_NAME": "TENERIFFE PARK", "SUBURB": "TENERIFFE", "POWER_TYPE": "MAINS POWER", "NUMBER_OF_PLATES": 1, "LONG": 153.04646467800001, "LAT": -27.4583801439999 }, "geometry": { "type": "Point", "coordinates": [ 153.04646467800012, -27.458380143999932 ] } },
{ "type": "Feature", "properties": { "OBJECTID": 51, "SAP_EQUIPMENT": "200569299", "ITEM_DESCRIPTION": "BBQ - ELECTRIC DOUBLE", "ITEM_TYPE": "BARBEQUE", "SAP_FUNCTIONAL_LOCATION": "B-RE-1519-N001", "PARK_NUMBER": "D0503", "PARK_NAME": "MANN PARK", "SUBURB": "WINDSOR", "POWER_TYPE": "MAINS POWER", "NUMBER_OF_PLATES": 2, "LONG": 153.03309888499999, "LAT": -27.441144688999898 }, "geometry": { "type": "Point", "coordinates": [ 153.033098885000072, -27.441144688999941 ] } },
{ "type": "Feature", "properties": { "OBJECTID": 52, "SAP_EQUIPMENT": "200502692", "ITEM_DESCRIPTION": "BBQ - ELECTRIC SINGLE", "ITEM_TYPE": "BARBEQUE", "SAP_FUNCTIONAL_LOCATION": "B-RE-2317-N011", "PARK_NUMBER": "D1252", "PARK_NAME": "TINCHI TAMBA WETLANDS RESERVE", "SUBURB": "BALD HILLS", "POWER_TYPE": "MAINS POWER", "NUMBER_OF_PLATES": 1, "LONG": 153.03357024300001, "LAT": -27.299597423000002 }, "geometry": { "type": "Point", "coordinates": [ 153.033570243000099, -27.299597422999966 ] } },
{ "type": "Feature", "properties": { "OBJECTID": 53, "SAP_EQUIPMENT": "200500845", "ITEM_DESCRIPTION": "BBQ - ELECTRIC DOUBLE", "ITEM_TYPE": "BARBEQUE", "SAP_FUNCTIONAL_LOCATION": "B-RE-1875-N026", "PARK_NUMBER": "D0276", "PARK_NAME": "SANDGATE FORESHORES PARK", "SUBURB": "SANDGATE", "POWER_TYPE": "MAINS POWER", "NUMBER_OF_PLATES": 2, "LONG": 153.08414088500001, "LAT": -27.323532707999998 }, "geometry": { "type": "Point", "coordinates": [ 153.084140885000011, -27.323532707999959 ] } },
{ "type": "Feature", "properties": { "OBJECTID": 54, "SAP_EQUIPMENT": "200501073", "ITEM_DESCRIPTION": "BBQ - ELECTRIC DOUBLE", "ITEM_TYPE": "BARBEQUE", "SAP_FUNCTIONAL_LOCATION": "B-RE-1685-N004", "PARK_NUMBER": "D0517", "PARK_NAME": "BAYSIDE PARK", "SUBURB": "MANLY", "POWER_TYPE": "MAINS POWER", "NUMBER_OF_PLATES": 2, "LONG": 153.18699808700001, "LAT": -27.451726182000002 }, "geometry": { "type": "Point", "coordinates": [ 153.18699808700012, -27.451726181999959 ] } },
{ "type": "Feature", "properties": { "OBJECTID": 55, "SAP_EQUIPMENT": "200470540", "ITEM_DESCRIPTION": "BBQ - WOOD SINGLE", "ITEM_TYPE": "BARBEQUE", "SAP_FUNCTIONAL_LOCATION": "B-RE-1649-N003", "PARK_NUMBER": "D0603", "PARK_NAME": "LEICESTER STREET PARK", "SUBURB": "COORPAROO", "POWER_TYPE": "WOOD FIRED", "NUMBER_OF_PLATES": 1, "LONG": 153.067187924, "LAT": -27.496795692 }, "geometry": { "type": "Point", "coordinates": [ 153.067187924000109, -27.496795691999978 ] } },
{ "type": "Feature", "properties": { "OBJECTID": 56, "SAP_EQUIPMENT": "200488961", "ITEM_DESCRIPTION": "BBQ - ELECTRIC DOUBLE", "ITEM_TYPE": "BARBEQUE", "SAP_FUNCTIONAL_LOCATION": "B-RE-0401-N003", "PARK_NUMBER": "D1544", "PARK_NAME": "RIVERVIEW FARM PARK", "SUBURB": "WESTLAKE", "POWER_TYPE": "MAINS POWER", "NUMBER_OF_PLATES": 2, "LONG": 152.90414241400001, "LAT": -27.546003245000001 }, "geometry": { "type": "Point", "coordinates": [ 152.904142414000034, -27.546003244999952 ] } },
{ "type": "Feature", "properties": { "OBJECTID": 57, "SAP_EQUIPMENT": "200488993", "ITEM_DESCRIPTION": "BBQ - ELECTRIC SINGLE", "ITEM_TYPE": "BARBEQUE", "SAP_FUNCTIONAL_LOCATION": "B-RE-2004-N032", "PARK_NUMBER": "D0228", "PARK_NAME": "7TH BRIGADE PARK", "SUBURB": "CHERMSIDE", "POWER_TYPE": "MAINS POWER", "NUMBER_OF_PLATES": 1, "LONG": 153.03463407699999, "LAT": -27.375857084 }, "geometry": { "type": "Point", "coordinates": [ 153.034634077000078, -27.375857083999961 ] } },
{ "type": "Feature", "properties": { "OBJECTID": 58, "SAP_EQUIPMENT": "100119619", "ITEM_DESCRIPTION": "BBQ - ELECTRIC SINGLE", "ITEM_TYPE": "BARBEQUE", "SAP_FUNCTIONAL_LOCATION": "B-RE-1761-N001", "PARK_NUMBER": "D0227", "PARK_NAME": "MARCHANT PARK", "SUBURB": "ASPLEY", "POWER_TYPE": "MAINS POWER", "NUMBER_OF_PLATES": 1, "LONG": 153.029877873, "LAT": -27.377880681000001 }, "geometry": { "type": "Point", "coordinates": [ 153.029877873000032, -27.377880680999965 ] } },
{ "type": "Feature", "properties": { "OBJECTID": 59, "SAP_EQUIPMENT": "100116432", "ITEM_DESCRIPTION": "BBQ - ELECTRIC SINGLE", "ITEM_TYPE": "BARBEQUE", "SAP_FUNCTIONAL_LOCATION": "B-RE-2460-N003", "PARK_NUMBER": "D0750", "PARK_NAME": "FLAMETREE STREET PARK", "SUBURB": "BRIDGEMAN DOWNS", "POWER_TYPE": "MAINS POWER", "NUMBER_OF_PLATES": 1, "LONG": 153.00197382100001, "LAT": -27.34900393 }, "geometry": { "type": "Point", "coordinates": [ 153.001973821000092, -27.349003929999981 ] } },
{ "type": "Feature", "properties": { "OBJECTID": 60, "SAP_EQUIPMENT": "100085223", "ITEM_DESCRIPTION": "BBQ - ELECTRIC SINGLE", "ITEM_TYPE": "BARBEQUE", "SAP_FUNCTIONAL_LOCATION": "B-RE-1370-N013", "PARK_NUMBER": "D0471", "PARK_NAME": "TOOWONG MEMORIAL PARK", "SUBURB": "TOOWONG", "POWER_TYPE": "MAINS POWER", "NUMBER_OF_PLATES": 1, "LONG": 152.995627939, "LAT": -27.478045763000001 }, "geometry": { "type": "Point", "coordinates": [ 152.995627939000087, -27.478045762999955 ] } },
{ "type": "Feature", "properties": { "OBJECTID": 61, "SAP_EQUIPMENT": "100086070", "ITEM_DESCRIPTION": "BBQ - ELECTRIC DOUBLE", "ITEM_TYPE": "BARBEQUE", "SAP_FUNCTIONAL_LOCATION": "B-RE-0610-N011", "PARK_NUMBER": "D1886", "PARK_NAME": "KOOKABURRA PARK - WEST", "SUBURB": "KARANA DOWNS", "POWER_TYPE": "MAINS POWER", "NUMBER_OF_PLATES": 2, "LONG": 152.84071159499999, "LAT": -27.542511691999898 }, "geometry": { "type": "Point", "coordinates": [ 152.840711595000016, -27.542511691999948 ] } },
{ "type": "Feature", "properties": { "OBJECTID": 62, "SAP_EQUIPMENT": "200524468", "ITEM_DESCRIPTION": "BBQ - ELECTRIC SINGLE", "ITEM_TYPE": "BARBEQUE", "SAP_FUNCTIONAL_LOCATION": "B-RE-2646-N003", "PARK_NUMBER": "D0975", "PARK_NAME": "FRED FRANCIS PARK", "SUBURB": "BRACKEN RIDGE", "POWER_TYPE": "MAINS POWER", "NUMBER_OF_PLATES": 1, "LONG": 153.043976206, "LAT": -27.317362245999998 }, "geometry": { "type": "Point", "coordinates": [ 153.043976206000025, -27.317362245999959 ] } },
{ "type": "Feature", "properties": { "OBJECTID": 63, "SAP_EQUIPMENT": "200478281", "ITEM_DESCRIPTION": "BBQ - ELECTRIC SINGLE", "ITEM_TYPE": "BARBEQUE", "SAP_FUNCTIONAL_LOCATION": "B-RE-0014-N002", "PARK_NUMBER": "D0456", "PARK_NAME": "PLAISTED PLACE PARK", "SUBURB": "NORTHGATE", "POWER_TYPE": "MAINS POWER", "NUMBER_OF_PLATES": 1, "LONG": 153.061154727, "LAT": -27.390951255999902 }, "geometry": { "type": "Point", "coordinates": [ 153.06115472700003, -27.390951255999937 ] } },
{ "type": "Feature", "properties": { "OBJECTID": 64, "SAP_EQUIPMENT": "100085085", "ITEM_DESCRIPTION": "BBQ - ELECTRIC SINGLE", "ITEM_TYPE": "BARBEQUE", "SAP_FUNCTIONAL_LOCATION": "B-RE-1736-N017", "PARK_NUMBER": "D0095", "PARK_NAME": "NEW FARM PARK", "SUBURB": "NEW FARM", "POWER_TYPE": "MAINS POWER", "NUMBER_OF_PLATES": 1, "LONG": 153.05226985100001, "LAT": -27.471184418999901 }, "geometry": { "type": "Point", "coordinates": [ 153.052269851000119, -27.47118441899994 ] } },
{ "type": "Feature", "properties": { "OBJECTID": 65, "SAP_EQUIPMENT": "100085953", "ITEM_DESCRIPTION": "BBQ - ELECTRIC SINGLE", "ITEM_TYPE": "BARBEQUE", "SAP_FUNCTIONAL_LOCATION": "B-RE-2690-N003", "PARK_NUMBER": "D0919", "PARK_NAME": "AVONDALE PARK", "SUBURB": "SINNAMON PARK", "POWER_TYPE": "MAINS POWER", "NUMBER_OF_PLATES": 1, "LONG": 152.94499892, "LAT": -27.544729979 }, "geometry": { "type": "Point", "coordinates": [ 152.944998920000103, -27.544729978999953 ] } },
{ "type": "Feature", "properties": { "OBJECTID": 66, "SAP_EQUIPMENT": "200488241", "ITEM_DESCRIPTION": "BBQ - ELECTRIC DOUBLE", "ITEM_TYPE": "BARBEQUE", "SAP_FUNCTIONAL_LOCATION": "B-RE-0312-N004", "PARK_NUMBER": "D2072", "PARK_NAME": "CALAMVALE DISTRICT PARK", "SUBURB": "CALAMVALE", "POWER_TYPE": "MAINS POWER", "NUMBER_OF_PLATES": 2, "LONG": 153.037580142, "LAT": -27.62042217 }, "geometry": { "type": "Point", "coordinates": [ 153.037580142000024, -27.620422169999983 ] } },
{ "type": "Feature", "properties": { "OBJECTID": 67, "SAP_EQUIPMENT": "100085484", "ITEM_DESCRIPTION": "BBQ - ELECTRIC DOUBLE", "ITEM_TYPE": "BARBEQUE", "SAP_FUNCTIONAL_LOCATION": "B-RE-0312-N004", "PARK_NUMBER": "D2072", "PARK_NAME": "CALAMVALE DISTRICT PARK", "SUBURB": "CALAMVALE", "POWER_TYPE": "MAINS POWER", "NUMBER_OF_PLATES": 2, "LONG": 153.03798775300001, "LAT": -27.6204708 }, "geometry": { "type": "Point", "coordinates": [ 153.037987753000039, -27.620470799999964 ] } },
{ "type": "Feature", "properties": { "OBJECTID": 68, "SAP_EQUIPMENT": "200477289", "ITEM_DESCRIPTION": "BBQ - ELECTRIC DOUBLE", "ITEM_TYPE": "BARBEQUE", "SAP_FUNCTIONAL_LOCATION": "B-RE-1565-N002", "PARK_NUMBER": "D0672", "PARK_NAME": "WILLIAMS PARK", "SUBURB": "RUNCORN", "POWER_TYPE": "MAINS POWER", "NUMBER_OF_PLATES": 2, "LONG": 153.07098673, "LAT": -27.602737977999901 }, "geometry": { "type": "Point", "coordinates": [ 153.070986730000072, -27.602737977999936 ] } },
{ "type": "Feature", "properties": { "OBJECTID": 69, "SAP_EQUIPMENT": "100085078", "ITEM_DESCRIPTION": "BBQ - ELECTRIC DOUBLE", "ITEM_TYPE": "BARBEQUE", "SAP_FUNCTIONAL_LOCATION": "B-RE-1853-N012", "PARK_NUMBER": "D0056", "PARK_NAME": "WHITES HILL RESERVE", "SUBURB": "CAMP HILL", "POWER_TYPE": "MAINS POWER", "NUMBER_OF_PLATES": 2, "LONG": 153.0787566, "LAT": -27.508946943000002 }, "geometry": { "type": "Point", "coordinates": [ 153.07875660000002, -27.508946942999955 ] } },
{ "type": "Feature", "properties": { "OBJECTID": 70, "SAP_EQUIPMENT": "200529045", "ITEM_DESCRIPTION": "BBQ - ELECTRIC DOUBLE", "ITEM_TYPE": "BARBEQUE", "SAP_FUNCTIONAL_LOCATION": "B-RE-0235-N002", "PARK_NUMBER": "D2634", "PARK_NAME": "TORRENS CRESCENT PARK", "SUBURB": "WAKERLEY", "POWER_TYPE": "MAINS POWER", "NUMBER_OF_PLATES": 2, "LONG": 153.159044209, "LAT": -27.482038415000002 }, "geometry": { "type": "Point", "coordinates": [ 153.159044209000058, -27.482038414999977 ] } },
{ "type": "Feature", "properties": { "OBJECTID": 71, "SAP_EQUIPMENT": "100101216", "ITEM_DESCRIPTION": "BBQ - ELECTRIC DOUBLE", "ITEM_TYPE": "BARBEQUE", "SAP_FUNCTIONAL_LOCATION": "B-RE-0265-N002", "PARK_NUMBER": "D3398", "PARK_NAME": "KEN FLETCHER PARK", "SUBURB": "TENNYSON", "POWER_TYPE": "MAINS POWER", "NUMBER_OF_PLATES": 2, "LONG": 153.006429002, "LAT": -27.524410359999901 }, "geometry": { "type": "Point", "coordinates": [ 153.006429002000118, -27.524410359999933 ] } },
{ "type": "Feature", "properties": { "OBJECTID": 72, "SAP_EQUIPMENT": "100101987", "ITEM_DESCRIPTION": "BBQ - WOOD SINGLE", "ITEM_TYPE": "BARBEQUE", "SAP_FUNCTIONAL_LOCATION": "B-RE-2605-N001", "PARK_NUMBER": "D1044", "PARK_NAME": "SETTLERS PARK", "SUBURB": "SINNAMON PARK", "POWER_TYPE": "WOOD FIRED", "NUMBER_OF_PLATES": 1, "LONG": 152.94254520600001, "LAT": -27.552824159 }, "geometry": { "type": "Point", "coordinates": [ 152.942545206000091, -27.552824158999954 ] } },
{ "type": "Feature", "properties": { "OBJECTID": 73, "SAP_EQUIPMENT": "100271121", "ITEM_DESCRIPTION": "BBQ - ELECTRIC SINGLE", "ITEM_TYPE": "BARBEQUE", "SAP_FUNCTIONAL_LOCATION": "B-RE-1373-N002", "PARK_NUMBER": "D0467", "PARK_NAME": "ANZAC PARK", "SUBURB": "MOUNT COOT-THA", "POWER_TYPE": "MAINS POWER", "NUMBER_OF_PLATES": 1, "LONG": 152.981405771, "LAT": -27.479502055999902 }, "geometry": { "type": "Point", "coordinates": [ 152.981405771000027, -27.479502055999944 ] } },
{ "type": "Feature", "properties": { "OBJECTID": 74, "SAP_EQUIPMENT": "100105130", "ITEM_DESCRIPTION": "BBQ - ELECTRIC DOUBLE", "ITEM_TYPE": "BARBEQUE", "SAP_FUNCTIONAL_LOCATION": "B-RE-1718-N003", "PARK_NUMBER": "D0118", "PARK_NAME": "MAJESTIC PARK", "SUBURB": "COORPAROO", "POWER_TYPE": "MAINS POWER", "NUMBER_OF_PLATES": 2, "LONG": 153.067340849, "LAT": -27.508043511 }, "geometry": { "type": "Point", "coordinates": [ 153.067340849000061, -27.508043510999983 ] } },
{ "type": "Feature", "properties": { "OBJECTID": 75, "SAP_EQUIPMENT": "100107270", "ITEM_DESCRIPTION": "BBQ - GAS DOUBLE", "ITEM_TYPE": "BARBEQUE", "SAP_FUNCTIONAL_LOCATION": "B-RE-2285-N006", "PARK_NUMBER": "D1376", "PARK_NAME": "CHELSEA ROAD PARK (NOS.399-551)", "SUBURB": "RANSOME", "POWER_TYPE": "BOTTLED GAS", "NUMBER_OF_PLATES": 2, "LONG": 153.18652854199999, "LAT": -27.485564921999998 }, "geometry": { "type": "Point", "coordinates": [ 153.186528542000019, -27.48556492199998 ] } },
{ "type": "Feature", "properties": { "OBJECTID": 76, "SAP_EQUIPMENT": "100107599", "ITEM_DESCRIPTION": "BBQ - ELECTRIC DOUBLE", "ITEM_TYPE": "BARBEQUE", "SAP_FUNCTIONAL_LOCATION": "B-RE-0474-N005", "PARK_NUMBER": "D1461", "PARK_NAME": "IRIS PLACE PARK", "SUBURB": "FITZGIBBON", "POWER_TYPE": "MAINS POWER", "NUMBER_OF_PLATES": 2, "LONG": 153.02930124100001, "LAT": -27.342162851000001 }, "geometry": { "type": "Point", "coordinates": [ 153.029301241000098, -27.342162850999955 ] } },
{ "type": "Feature", "properties": { "OBJECTID": 77, "SAP_EQUIPMENT": "100107611", "ITEM_DESCRIPTION": "BBQ - ELECTRIC DOUBLE", "ITEM_TYPE": "BARBEQUE", "SAP_FUNCTIONAL_LOCATION": "B-RE-2724-N002", "PARK_NUMBER": "D2189", "PARK_NAME": "KURINGGAI PARK", "SUBURB": "FITZGIBBON", "POWER_TYPE": "MAINS POWER", "NUMBER_OF_PLATES": 2, "LONG": 153.02677785200001, "LAT": -27.340459811 }, "geometry": { "type": "Point", "coordinates": [ 153.026777852, -27.34045981099996 ] } },
{ "type": "Feature", "properties": { "OBJECTID": 78, "SAP_EQUIPMENT": "100264401", "ITEM_DESCRIPTION": "BBQ - GAS DOUBLE (SOLAR IGNITION)", "ITEM_TYPE": "BARBEQUE", "SAP_FUNCTIONAL_LOCATION": "B-RE-1901-N023", "PARK_NUMBER": "D0249", "PARK_NAME": "MT COOT-THA RESERVE", "SUBURB": "MOUNT COOT-THA", "POWER_TYPE": "BOTTLED GAS", "NUMBER_OF_PLATES": 2, "LONG": 152.97045008399999, "LAT": -27.472634811 }, "geometry": { "type": "Point", "coordinates": [ 152.970450084000049, -27.472634810999978 ] } },
{ "type": "Feature", "properties": { "OBJECTID": 79, "SAP_EQUIPMENT": "100108592", "ITEM_DESCRIPTION": "BBQ - ELECTRIC SINGLE", "ITEM_TYPE": "BARBEQUE", "SAP_FUNCTIONAL_LOCATION": "B-RE-1807-N003", "PARK_NUMBER": "D0015", "PARK_NAME": "KEATING PARK", "SUBURB": "INDOOROOPILLY", "POWER_TYPE": "MAINS POWER", "NUMBER_OF_PLATES": 1, "LONG": 152.97492004599999, "LAT": -27.499693486999899 }, "geometry": { "type": "Point", "coordinates": [ 152.974920046000079, -27.499693486999945 ] } },
{ "type": "Feature", "properties": { "OBJECTID": 80, "SAP_EQUIPMENT": "100109249", "ITEM_DESCRIPTION": "BBQ - ELECTRIC DOUBLE", "ITEM_TYPE": "BARBEQUE", "SAP_FUNCTIONAL_LOCATION": "B-RE-1446-N005", "PARK_NUMBER": "D0487", "PARK_NAME": "MCCOOK PARK", "SUBURB": "NEWMARKET", "POWER_TYPE": "MAINS POWER", "NUMBER_OF_PLATES": 2, "LONG": 153.01374201199999, "LAT": -27.437303262999901 }, "geometry": { "type": "Point", "coordinates": [ 153.01374201200008, -27.437303262999933 ] } },
{ "type": "Feature", "properties": { "OBJECTID": 81, "SAP_EQUIPMENT": "100110470", "ITEM_DESCRIPTION": "BBQ - ELECTRIC SINGLE", "ITEM_TYPE": "BARBEQUE", "SAP_FUNCTIONAL_LOCATION": "B-RE-1846-N001", "PARK_NUMBER": "D0064", "PARK_NAME": "GLINDEMANN PARK", "SUBURB": "HOLLAND PARK WEST", "POWER_TYPE": "MAINS POWER", "NUMBER_OF_PLATES": 1, "LONG": 153.069552974, "LAT": -27.526398992999901 }, "geometry": { "type": "Point", "coordinates": [ 153.069552974000089, -27.52639899299993 ] } },
{ "type": "Feature", "properties": { "OBJECTID": 82, "SAP_EQUIPMENT": "100115892", "ITEM_DESCRIPTION": "BBQ - ELECTRIC DOUBLE", "ITEM_TYPE": "BARBEQUE", "SAP_FUNCTIONAL_LOCATION": "B-RE-0416-N002", "PARK_NUMBER": "D1723", "PARK_NAME": "FREW PARK", "SUBURB": "MILTON", "POWER_TYPE": "MAINS POWER", "NUMBER_OF_PLATES": 2, "LONG": 153.00034704199999, "LAT": -27.468968308999901 }, "geometry": { "type": "Point", "coordinates": [ 153.000347042000044, -27.468968308999933 ] } },
{ "type": "Feature", "properties": { "OBJECTID": 83, "SAP_EQUIPMENT": "100119402", "ITEM_DESCRIPTION": "BBQ - ELECTRIC DOUBLE", "ITEM_TYPE": "BARBEQUE", "SAP_FUNCTIONAL_LOCATION": "B-RE-2099-N029", "PARK_NUMBER": "D1279", "PARK_NAME": "THE LAKE PARKLANDS", "SUBURB": "FOREST LAKE", "POWER_TYPE": "MAINS POWER", "NUMBER_OF_PLATES": 2, "LONG": 152.96221731599999, "LAT": -27.625295762999901 }, "geometry": { "type": "Point", "coordinates": [ 152.962217316000078, -27.62529576299994 ] } },
{ "type": "Feature", "properties": { "OBJECTID": 84, "SAP_EQUIPMENT": "100125464", "ITEM_DESCRIPTION": "BBQ - ELECTRIC DOUBLE", "ITEM_TYPE": "BARBEQUE", "SAP_FUNCTIONAL_LOCATION": "B-RE-1393-N006", "PARK_NUMBER": "D0454", "PARK_NAME": "OXENHAM PARK", "SUBURB": "NUNDAH", "POWER_TYPE": "MAINS POWER", "NUMBER_OF_PLATES": 2, "LONG": 153.06264021000001, "LAT": -27.4004192099999 }, "geometry": { "type": "Point", "coordinates": [ 153.06264021000004, -27.400419209999939 ] } },
{ "type": "Feature", "properties": { "OBJECTID": 85, "SAP_EQUIPMENT": "100125765", "ITEM_DESCRIPTION": "BBQ - ELECTRIC DOUBLE", "ITEM_TYPE": "BARBEQUE", "SAP_FUNCTIONAL_LOCATION": "B-RE-0315-N002", "PARK_NUMBER": "D2068", "PARK_NAME": "KUNDU PARK", "SUBURB": "KELVIN GROVE", "POWER_TYPE": "MAINS POWER", "NUMBER_OF_PLATES": 2, "LONG": 153.01475629000001, "LAT": -27.4530984949999 }, "geometry": { "type": "Point", "coordinates": [ 153.014756290000037, -27.453098494999949 ] } },
{ "type": "Feature", "properties": { "OBJECTID": 86, "SAP_EQUIPMENT": "100125836", "ITEM_DESCRIPTION": "BBQ - ELECTRIC SINGLE", "ITEM_TYPE": "BARBEQUE", "SAP_FUNCTIONAL_LOCATION": "B-RE-2725-N002", "PARK_NUMBER": "D2193", "PARK_NAME": "DAINTREE PARK", "SUBURB": "FITZGIBBON", "POWER_TYPE": "MAINS POWER", "NUMBER_OF_PLATES": 1, "LONG": 153.02986753100001, "LAT": -27.340958358000002 }, "geometry": { "type": "Point", "coordinates": [ 153.029867531000036, -27.340958357999966 ] } },
{ "type": "Feature", "properties": { "OBJECTID": 87, "SAP_EQUIPMENT": "100132313", "ITEM_DESCRIPTION": "BBQ - GAS DOUBLE (SOLAR IGNITION)", "ITEM_TYPE": "BARBEQUE", "SAP_FUNCTIONAL_LOCATION": "B-RE-1901-N008", "PARK_NUMBER": "D0249", "PARK_NAME": "MT COOT-THA RESERVE", "SUBURB": "MOUNT COOT-THA", "POWER_TYPE": "BOTTLED GAS", "NUMBER_OF_PLATES": 2, "LONG": 152.95809105699999, "LAT": -27.467135323000001 }, "geometry": { "type": "Point", "coordinates": [ 152.958091057000047, -27.46713532299998 ] } },
{ "type": "Feature", "properties": { "OBJECTID": 88, "SAP_EQUIPMENT": "100132673", "ITEM_DESCRIPTION": "BBQ - GAS DOUBLE (SOLAR IGNITION)", "ITEM_TYPE": "BARBEQUE", "SAP_FUNCTIONAL_LOCATION": "B-RE-1901-N023", "PARK_NUMBER": "D0249", "PARK_NAME": "MT COOT-THA RESERVE", "SUBURB": "MOUNT COOT-THA", "POWER_TYPE": "BOTTLED GAS", "NUMBER_OF_PLATES": 2, "LONG": 152.97121094, "LAT": -27.471902742999902 }, "geometry": { "type": "Point", "coordinates": [ 152.971210940000105, -27.47190274299993 ] } },
{ "type": "Feature", "properties": { "OBJECTID": 89, "SAP_EQUIPMENT": "100135926", "ITEM_DESCRIPTION": "BBQ - ELECTRIC DOUBLE", "ITEM_TYPE": "BARBEQUE", "SAP_FUNCTIONAL_LOCATION": "B-RE-1911-N005", "PARK_NUMBER": "D0343", "PARK_NAME": "WEST END RIVERSIDE LANDS PARK", "SUBURB": "WEST END", "POWER_TYPE": "MAINS POWER", "NUMBER_OF_PLATES": 2, "LONG": 153.00086924199999, "LAT": -27.481135647 }, "geometry": { "type": "Point", "coordinates": [ 153.000869242000022, -27.481135646999974 ] } },
{ "type": "Feature", "properties": { "OBJECTID": 90, "SAP_EQUIPMENT": "100136132", "ITEM_DESCRIPTION": "BBQ - ELECTRIC SINGLE", "ITEM_TYPE": "BARBEQUE", "SAP_FUNCTIONAL_LOCATION": "B-RE-1741-N003", "PARK_NUMBER": "D0157", "PARK_NAME": "JURAYELBA PLACE PARK", "SUBURB": "KEPERRA", "POWER_TYPE": "MAINS POWER", "NUMBER_OF_PLATES": 1, "LONG": 152.96052856899999, "LAT": -27.407640473000001 }, "geometry": { "type": "Point", "coordinates": [ 152.960528569000076, -27.407640472999958 ] } },
{ "type": "Feature", "properties": { "OBJECTID": 91, "SAP_EQUIPMENT": "100252286", "ITEM_DESCRIPTION": "BBQ - ELECTRIC SINGLE", "ITEM_TYPE": "BARBEQUE", "SAP_FUNCTIONAL_LOCATION": "B-RE-0047-N010", "PARK_NUMBER": "D2040", "PARK_NAME": "NEWCOMB PARK", "SUBURB": "RIVERHILLS", "POWER_TYPE": "MAINS POWER", "NUMBER_OF_PLATES": 1, "LONG": 152.89944367499999, "LAT": -27.562606569 }, "geometry": { "type": "Point", "coordinates": [ 152.899443675000043, -27.562606568999968 ] } },
{ "type": "Feature", "properties": { "OBJECTID": 92, "SAP_EQUIPMENT": "100267476", "ITEM_DESCRIPTION": "BBQ - ELECTRIC DOUBLE", "ITEM_TYPE": "BARBEQUE", "SAP_FUNCTIONAL_LOCATION": "B-RE-0228-N011", "PARK_NUMBER": "D2833", "PARK_NAME": "MOGGILL DISTRICT SPORT PARK", "SUBURB": "MOGGILL", "POWER_TYPE": "MAINS POWER", "NUMBER_OF_PLATES": 2, "LONG": 152.862915598, "LAT": -27.5805872779999 }, "geometry": { "type": "Point", "coordinates": [ 152.862915598000086, -27.580587277999939 ] } },
{ "type": "Feature", "properties": { "OBJECTID": 93, "SAP_EQUIPMENT": "100273101", "ITEM_DESCRIPTION": "BBQ - ELECTRIC DOUBLE", "ITEM_TYPE": "BARBEQUE", "SAP_FUNCTIONAL_LOCATION": "B-RE-1401-N008", "PARK_NUMBER": "D0444", "PARK_NAME": "BANYO MEMORIAL PARK", "SUBURB": "BANYO", "POWER_TYPE": "MAINS POWER", "NUMBER_OF_PLATES": 2, "LONG": 153.0784784, "LAT": -27.373888012999899 }, "geometry": { "type": "Point", "coordinates": [ 153.078478400000108, -27.373888012999942 ] } },
{ "type": "Feature", "properties": { "OBJECTID": 94, "SAP_EQUIPMENT": "100275146", "ITEM_DESCRIPTION": "BBQ - ELECTRIC SINGLE", "ITEM_TYPE": "BARBEQUE", "SAP_FUNCTIONAL_LOCATION": "B-RE-1987-N032", "PARK_NUMBER": "D0245", "PARK_NAME": "SHAW ESTATE PARK", "SUBURB": "WAVELL HEIGHTS", "POWER_TYPE": "MAINS POWER", "NUMBER_OF_PLATES": 1, "LONG": 153.03915277799999, "LAT": -27.401303512999998 }, "geometry": { "type": "Point", "coordinates": [ 153.039152778000016, -27.401303512999959 ] } },
{ "type": "Feature", "properties": { "OBJECTID": 95, "SAP_EQUIPMENT": "100092418", "ITEM_DESCRIPTION": "BBQ - ELECTRIC DOUBLE", "ITEM_TYPE": "BARBEQUE", "SAP_FUNCTIONAL_LOCATION": "B-RE-1977-N003", "PARK_NUMBER": "D0171", "PARK_NAME": "CAMERON ROCKS RESERVE", "SUBURB": "HAMILTON", "POWER_TYPE": "MAINS POWER", "NUMBER_OF_PLATES": 2, "LONG": 153.04894299899999, "LAT": -27.440611562000001 }, "geometry": { "type": "Point", "coordinates": [ 153.048942999000019, -27.440611561999958 ] } },
{ "type": "Feature", "properties": { "OBJECTID": 96, "SAP_EQUIPMENT": "100281987", "ITEM_DESCRIPTION": "BBQ - ELECTRIC SINGLE", "ITEM_TYPE": "BARBEQUE", "SAP_FUNCTIONAL_LOCATION": "B-RE-1638-N011", "PARK_NUMBER": "D0553", "PARK_NAME": "SALISBURY RECREATION RESERVE", "SUBURB": "SALISBURY", "POWER_TYPE": "MAINS POWER", "NUMBER_OF_PLATES": 1, "LONG": 153.03328382199999, "LAT": -27.549331923 }, "geometry": { "type": "Point", "coordinates": [ 153.033283822000044, -27.549331922999954 ] } },
{ "type": "Feature", "properties": { "OBJECTID": 97, "SAP_EQUIPMENT": "200474131", "ITEM_DESCRIPTION": "BBQ - WOOD SINGLE", "ITEM_TYPE": "BARBEQUE", "SAP_FUNCTIONAL_LOCATION": "B-RE-1869-N013", "PARK_NUMBER": "D0284", "PARK_NAME": "SANDGATE SECOND LAGOON RESERVE", "SUBURB": "SANDGATE", "POWER_TYPE": "WOOD FIRED", "NUMBER_OF_PLATES": 1, "LONG": 153.06239652799999, "LAT": -27.314128352000001 }, "geometry": { "type": "Point", "coordinates": [ 153.062396528000022, -27.314128351999955 ] } },
{ "type": "Feature", "properties": { "OBJECTID": 98, "SAP_EQUIPMENT": "200524761", "ITEM_DESCRIPTION": "BBQ - WOOD SINGLE", "ITEM_TYPE": "BARBEQUE", "SAP_FUNCTIONAL_LOCATION": "B-RE-1559-N005", "PARK_NUMBER": "D0678", "PARK_NAME": "COL BENNET PARK", "SUBURB": "ALGESTER", "POWER_TYPE": "WOOD FIRED", "NUMBER_OF_PLATES": 1, "LONG": 153.027367349, "LAT": -27.615759628 }, "geometry": { "type": "Point", "coordinates": [ 153.027367349000087, -27.615759627999978 ] } },
{ "type": "Feature", "properties": { "OBJECTID": 99, "SAP_EQUIPMENT": "100293895", "ITEM_DESCRIPTION": "BBQ - ELECTRIC DOUBLE", "ITEM_TYPE": "BARBEQUE", "SAP_FUNCTIONAL_LOCATION": "B-RE-1190-N004", "PARK_NUMBER": "D3175", "PARK_NAME": "TRYON STREET PARK", "SUBURB": "UPPER MOUNT GRAVATT", "POWER_TYPE": "MAINS POWER", "NUMBER_OF_PLATES": 2, "LONG": 153.08441236900001, "LAT": -27.559797778 }, "geometry": { "type": "Point", "coordinates": [ 153.08441236900012, -27.559797777999961 ] } },
{ "type": "Feature", "properties": { "OBJECTID": 100, "SAP_EQUIPMENT": "100298022", "ITEM_DESCRIPTION": "BBQ - ELECTRIC DOUBLE", "ITEM_TYPE": "BARBEQUE", "SAP_FUNCTIONAL_LOCATION": "B-RE-0259-N003", "PARK_NUMBER": "D3533", "PARK_NAME": "CARL STREET PARK", "SUBURB": "WOOLLOONGABBA", "POWER_TYPE": "MAINS POWER", "NUMBER_OF_PLATES": 2, "LONG": 153.03709410600001, "LAT": -27.500002244000001 }, "geometry": { "type": "Point", "coordinates": [ 153.03709410600004, -27.500002243999973 ] } },
{ "type": "Feature", "properties": { "OBJECTID": 101, "SAP_EQUIPMENT": "200478587", "ITEM_DESCRIPTION": "BBQ - WOOD SINGLE", "ITEM_TYPE": "BARBEQUE", "SAP_FUNCTIONAL_LOCATION": "B-RE-1949-N002", "PARK_NUMBER": "D0202", "PARK_NAME": "GORDON PARK PLAYGROUND PARK", "SUBURB": "GORDON PARK", "POWER_TYPE": "WOOD FIRED", "NUMBER_OF_PLATES": 1, "LONG": 153.02768044000001, "LAT": -27.414378535000001 }, "geometry": { "type": "Point", "coordinates": [ 153.02768044000004, -27.414378534999969 ] } },
{ "type": "Feature", "properties": { "OBJECTID": 102, "SAP_EQUIPMENT": "100302382", "ITEM_DESCRIPTION": "BBQ - GAS SINGLE (SOLAR IGNITION)", "ITEM_TYPE": "BARBEQUE", "SAP_FUNCTIONAL_LOCATION": "B-RE-1880-N002", "PARK_NUMBER": "D0271", "PARK_NAME": "MOGGILL FERRY RESERVE", "SUBURB": "MOGGILL", "POWER_TYPE": "BOTTLED GAS", "NUMBER_OF_PLATES": 1, "LONG": 152.85774614600001, "LAT": -27.596047896999899 }, "geometry": { "type": "Point", "coordinates": [ 152.857746146000068, -27.596047896999949 ] } },
{ "type": "Feature", "properties": { "OBJECTID": 103, "SAP_EQUIPMENT": "100310766", "ITEM_DESCRIPTION": "BBQ - ELECTRIC DOUBLE", "ITEM_TYPE": "BARBEQUE", "SAP_FUNCTIONAL_LOCATION": "B-RE-1378-N003", "PARK_NUMBER": "D0480", "PARK_NAME": "PERRIN PARK", "SUBURB": "TOOWONG", "POWER_TYPE": "MAINS POWER", "NUMBER_OF_PLATES": 2, "LONG": 152.99193249699999, "LAT": -27.4910662469999 }, "geometry": { "type": "Point", "coordinates": [ 152.991932497000107, -27.491066246999935 ] } },
{ "type": "Feature", "properties": { "OBJECTID": 104, "SAP_EQUIPMENT": "100312982", "ITEM_DESCRIPTION": "BBQ - ELECTRIC DOUBLE", "ITEM_TYPE": "BARBEQUE", "SAP_FUNCTIONAL_LOCATION": "B-RE-1553-N022", "PARK_NUMBER": "D0685", "PARK_NAME": "WALLY TATE PARK", "SUBURB": "KURABY", "POWER_TYPE": "MAINS POWER", "NUMBER_OF_PLATES": 2, "LONG": 153.091469784, "LAT": -27.602998006 }, "geometry": { "type": "Point", "coordinates": [ 153.091469784000083, -27.60299800599995 ] } },
{ "type": "Feature", "properties": { "OBJECTID": 105, "SAP_EQUIPMENT": "200479105", "ITEM_DESCRIPTION": "BBQ - ELECTRIC SINGLE", "ITEM_TYPE": "BARBEQUE", "SAP_FUNCTIONAL_LOCATION": "B-RE-0572-N003", "PARK_NUMBER": "D1763", "PARK_NAME": "COLMSLIE BEACH RESERVE", "SUBURB": "MURARRIE", "POWER_TYPE": "MAINS POWER", "NUMBER_OF_PLATES": 1, "LONG": 153.09019740100001, "LAT": -27.450229387 }, "geometry": { "type": "Point", "coordinates": [ 153.090197401000069, -27.450229386999979 ] } },
{ "type": "Feature", "properties": { "OBJECTID": 106, "SAP_EQUIPMENT": "200479134", "ITEM_DESCRIPTION": "BBQ - ELECTRIC SINGLE", "ITEM_TYPE": "BARBEQUE", "SAP_FUNCTIONAL_LOCATION": "B-RE-2003-N003", "PARK_NUMBER": "D0229", "PARK_NAME": "JOHN PATTERSON PARK", "SUBURB": "CHERMSIDE", "POWER_TYPE": "MAINS POWER", "NUMBER_OF_PLATES": 1, "LONG": 153.02824426000001, "LAT": -27.388269143999899 }, "geometry": { "type": "Point", "coordinates": [ 153.028244260000065, -27.388269143999935 ] } },
{ "type": "Feature", "properties": { "OBJECTID": 107, "SAP_EQUIPMENT": "200471654", "ITEM_DESCRIPTION": "BBQ - ELECTRIC SINGLE", "ITEM_TYPE": "BARBEQUE", "SAP_FUNCTIONAL_LOCATION": "B-RE-1875-N014", "PARK_NUMBER": "D0276", "PARK_NAME": "SANDGATE FORESHORES PARK", "SUBURB": "SANDGATE", "POWER_TYPE": "MAINS POWER", "NUMBER_OF_PLATES": 1, "LONG": 153.069578471, "LAT": -27.313144994000002 }, "geometry": { "type": "Point", "coordinates": [ 153.069578471000113, -27.31314499399997 ] } },
{ "type": "Feature", "properties": { "OBJECTID": 108, "SAP_EQUIPMENT": "100267976", "ITEM_DESCRIPTION": "BBQ - ELECTRIC DOUBLE", "ITEM_TYPE": "BARBEQUE", "SAP_FUNCTIONAL_LOCATION": "B-RE-2099-N006", "PARK_NUMBER": "D1279", "PARK_NAME": "THE LAKE PARKLANDS", "SUBURB": "FOREST LAKE", "POWER_TYPE": "MAINS POWER", "NUMBER_OF_PLATES": 2, "LONG": 152.966851222, "LAT": -27.62177588 }, "geometry": { "type": "Point", "coordinates": [ 152.966851222000059, -27.621775879999973 ] } },
{ "type": "Feature", "properties": { "OBJECTID": 109, "SAP_EQUIPMENT": "100299000", "ITEM_DESCRIPTION": "BBQ - ELECTRIC SINGLE", "ITEM_TYPE": "BARBEQUE", "SAP_FUNCTIONAL_LOCATION": "B-RE-0069-N004", "PARK_NUMBER": "D2028", "PARK_NAME": "TALISKER PLACE PARK", "SUBURB": "PARKINSON", "POWER_TYPE": "MAINS POWER", "NUMBER_OF_PLATES": 1, "LONG": 153.02498395699999, "LAT": -27.639634946999902 }, "geometry": { "type": "Point", "coordinates": [ 153.024983957000018, -27.639634946999934 ] } },
{ "type": "Feature", "properties": { "OBJECTID": 110, "SAP_EQUIPMENT": "200479210", "ITEM_DESCRIPTION": "BBQ - ELECTRIC DOUBLE", "ITEM_TYPE": "BARBEQUE", "SAP_FUNCTIONAL_LOCATION": "B-RE-2633-N002", "PARK_NUMBER": "D0989", "PARK_NAME": "LEACROFT ROAD PARK", "SUBURB": "BURBANK", "POWER_TYPE": "MAINS POWER", "NUMBER_OF_PLATES": 2, "LONG": 153.16444238099999, "LAT": -27.570524206000002 }, "geometry": { "type": "Point", "coordinates": [ 153.164442381000072, -27.570524205999959 ] } },
{ "type": "Feature", "properties": { "OBJECTID": 111, "SAP_EQUIPMENT": "200480647", "ITEM_DESCRIPTION": "BBQ - ELECTRIC SINGLE", "ITEM_TYPE": "BARBEQUE", "SAP_FUNCTIONAL_LOCATION": "B-RE-1875-N012", "PARK_NUMBER": "D0276", "PARK_NAME": "SANDGATE FORESHORES PARK", "SUBURB": "SANDGATE", "POWER_TYPE": "MAINS POWER", "NUMBER_OF_PLATES": 1, "LONG": 153.082910849, "LAT": -27.322144379999902 }, "geometry": { "type": "Point", "coordinates": [ 153.082910849000086, -27.322144379999941 ] } },
{ "type": "Feature", "properties": { "OBJECTID": 112, "SAP_EQUIPMENT": "200502786", "ITEM_DESCRIPTION": "BBQ - ELECTRIC SINGLE", "ITEM_TYPE": "BARBEQUE", "SAP_FUNCTIONAL_LOCATION": "B-RE-2352-N005", "PARK_NUMBER": "D1394", "PARK_NAME": "BARRETT STREET PARK (WATER RESERVE)", "SUBURB": "BRACKEN RIDGE", "POWER_TYPE": "MAINS POWER", "NUMBER_OF_PLATES": 1, "LONG": 153.03233388500001, "LAT": -27.320539927 }, "geometry": { "type": "Point", "coordinates": [ 153.032333885000071, -27.32053992699997 ] } },
{ "type": "Feature", "properties": { "OBJECTID": 113, "SAP_EQUIPMENT": "200502791", "ITEM_DESCRIPTION": "BBQ - ELECTRIC SINGLE", "ITEM_TYPE": "BARBEQUE", "SAP_FUNCTIONAL_LOCATION": "B-RE-2352-N005", "PARK_NUMBER": "D1394", "PARK_NAME": "BARRETT STREET PARK (WATER RESERVE)", "SUBURB": "BRACKEN RIDGE", "POWER_TYPE": "MAINS POWER", "NUMBER_OF_PLATES": 1, "LONG": 153.03206985200001, "LAT": -27.320253216000001 }, "geometry": { "type": "Point", "coordinates": [ 153.032069852000063, -27.320253215999969 ] } },
{ "type": "Feature", "properties": { "OBJECTID": 114, "SAP_EQUIPMENT": "200507010", "ITEM_DESCRIPTION": "BBQ - ELECTRIC SINGLE", "ITEM_TYPE": "BARBEQUE", "SAP_FUNCTIONAL_LOCATION": "B-RE-0567-N001", "PARK_NUMBER": "D1768", "PARK_NAME": "DR VALENTINE McDOWALL PARK", "SUBURB": "MCDOWALL", "POWER_TYPE": "MAINS POWER", "NUMBER_OF_PLATES": 1, "LONG": 152.98121789199999, "LAT": -27.373732612000001 }, "geometry": { "type": "Point", "coordinates": [ 152.981217892000018, -27.373732611999969 ] } },
{ "type": "Feature", "properties": { "OBJECTID": 115, "SAP_EQUIPMENT": "200488238", "ITEM_DESCRIPTION": "BBQ - ELECTRIC SINGLE", "ITEM_TYPE": "BARBEQUE", "SAP_FUNCTIONAL_LOCATION": "B-RE-1672-N008", "PARK_NUMBER": "D0662", "PARK_NAME": "JOHN GOSS RESERVE", "SUBURB": "CHERMSIDE WEST", "POWER_TYPE": "MAINS POWER", "NUMBER_OF_PLATES": 1, "LONG": 153.01295854899999, "LAT": -27.378958102 }, "geometry": { "type": "Point", "coordinates": [ 153.012958549000018, -27.378958101999956 ] } },
{ "type": "Feature", "properties": { "OBJECTID": 116, "SAP_EQUIPMENT": "200471970", "ITEM_DESCRIPTION": "BBQ - ELECTRIC SINGLE", "ITEM_TYPE": "BARBEQUE", "SAP_FUNCTIONAL_LOCATION": "B-RE-2280-N008", "PARK_NUMBER": "D1381", "PARK_NAME": "AMAZONS PLACE PARK", "SUBURB": "JINDALEE", "POWER_TYPE": "MAINS POWER", "NUMBER_OF_PLATES": 1, "LONG": 152.956278403, "LAT": -27.534371841999899 }, "geometry": { "type": "Point", "coordinates": [ 152.956278403000056, -27.534371841999928 ] } },
{ "type": "Feature", "properties": { "OBJECTID": 117, "SAP_EQUIPMENT": "200478574", "ITEM_DESCRIPTION": "BBQ - ELECTRIC SINGLE", "ITEM_TYPE": "BARBEQUE", "SAP_FUNCTIONAL_LOCATION": "B-RE-1875-N004", "PARK_NUMBER": "D0276", "PARK_NAME": "SANDGATE FORESHORES PARK", "SUBURB": "SANDGATE", "POWER_TYPE": "MAINS POWER", "NUMBER_OF_PLATES": 1, "LONG": 153.06473556200001, "LAT": -27.292572371999899 }, "geometry": { "type": "Point", "coordinates": [ 153.06473556200001, -27.292572371999938 ] } },
{ "type": "Feature", "properties": { "OBJECTID": 118, "SAP_EQUIPMENT": "100119557", "ITEM_DESCRIPTION": "BBQ - ELECTRIC SINGLE", "ITEM_TYPE": "BARBEQUE", "SAP_FUNCTIONAL_LOCATION": "B-RE-1638-N015", "PARK_NUMBER": "D0553", "PARK_NAME": "SALISBURY RECREATION RESERVE", "SUBURB": "SALISBURY", "POWER_TYPE": "MAINS POWER", "NUMBER_OF_PLATES": 1, "LONG": 153.03664583400001, "LAT": -27.550506207999899 }, "geometry": { "type": "Point", "coordinates": [ 153.036645834000069, -27.550506207999945 ] } },
{ "type": "Feature", "properties": { "OBJECTID": 119, "SAP_EQUIPMENT": "200478763", "ITEM_DESCRIPTION": "BBQ - WOOD SINGLE", "ITEM_TYPE": "BARBEQUE", "SAP_FUNCTIONAL_LOCATION": "B-RE-1639-N003", "PARK_NUMBER": "D0551", "PARK_NAME": "BILL MOORE PARK", "SUBURB": "SALISBURY", "POWER_TYPE": "WOOD FIRED", "NUMBER_OF_PLATES": 1, "LONG": 153.02911240700001, "LAT": -27.548216109999899 }, "geometry": { "type": "Point", "coordinates": [ 153.029112407000071, -27.548216109999942 ] } },
{ "type": "Feature", "properties": { "OBJECTID": 120, "SAP_EQUIPMENT": "200478783", "ITEM_DESCRIPTION": "BBQ - WOOD SINGLE", "ITEM_TYPE": "BARBEQUE", "SAP_FUNCTIONAL_LOCATION": "B-RE-2216-N002", "PARK_NUMBER": "D1472", "PARK_NAME": "JOY TAYLOR PARK", "SUBURB": "COOPERS PLAINS", "POWER_TYPE": "WOOD FIRED", "NUMBER_OF_PLATES": 1, "LONG": 153.04240283799999, "LAT": -27.569010122000002 }, "geometry": { "type": "Point", "coordinates": [ 153.042402838000044, -27.569010121999952 ] } },
{ "type": "Feature", "properties": { "OBJECTID": 121, "SAP_EQUIPMENT": "200471729", "ITEM_DESCRIPTION": "BBQ - WOOD SINGLE", "ITEM_TYPE": "BARBEQUE", "SAP_FUNCTIONAL_LOCATION": "B-RE-2431-N002", "PARK_NUMBER": "D0836", "PARK_NAME": "MIKADO STREET PARK", "SUBURB": "ASCOT", "POWER_TYPE": "WOOD FIRED", "NUMBER_OF_PLATES": 1, "LONG": 153.05331029499999, "LAT": -27.433709410999899 }, "geometry": { "type": "Point", "coordinates": [ 153.053310295000074, -27.433709410999938 ] } },
{ "type": "Feature", "properties": { "OBJECTID": 122, "SAP_EQUIPMENT": "200481713", "ITEM_DESCRIPTION": "BBQ - ELECTRIC SINGLE", "ITEM_TYPE": "BARBEQUE", "SAP_FUNCTIONAL_LOCATION": "B-RE-2165-N003", "PARK_NUMBER": "D1144", "PARK_NAME": "MAISIE DIXON PARK", "SUBURB": "EIGHT MILE PLAINS", "POWER_TYPE": "MAINS POWER", "NUMBER_OF_PLATES": 1, "LONG": 153.099916764, "LAT": -27.567667274000001 }, "geometry": { "type": "Point", "coordinates": [ 153.099916764000113, -27.567667273999973 ] } },
{ "type": "Feature", "properties": { "OBJECTID": 123, "SAP_EQUIPMENT": "200480335", "ITEM_DESCRIPTION": "BBQ - ELECTRIC DOUBLE", "ITEM_TYPE": "BARBEQUE", "SAP_FUNCTIONAL_LOCATION": "B-RE-2004-N035", "PARK_NUMBER": "D0228", "PARK_NAME": "7TH BRIGADE PARK", "SUBURB": "CHERMSIDE", "POWER_TYPE": "MAINS POWER", "NUMBER_OF_PLATES": 2, "LONG": 153.03382123700001, "LAT": -27.378708757999998 }, "geometry": { "type": "Point", "coordinates": [ 153.033821237000097, -27.378708757999959 ] } },
{ "type": "Feature", "properties": { "OBJECTID": 124, "SAP_EQUIPMENT": "200479071", "ITEM_DESCRIPTION": "BBQ - ELECTRIC SINGLE", "ITEM_TYPE": "BARBEQUE", "SAP_FUNCTIONAL_LOCATION": "B-RE-2471-N002", "PARK_NUMBER": "D0798", "PARK_NAME": "WENDON WAY PARK", "SUBURB": "BRIDGEMAN DOWNS", "POWER_TYPE": "MAINS POWER", "NUMBER_OF_PLATES": 1, "LONG": 152.98527773800001, "LAT": -27.361185991 }, "geometry": { "type": "Point", "coordinates": [ 152.985277738000036, -27.361185990999957 ] } },
{ "type": "Feature", "properties": { "OBJECTID": 125, "SAP_EQUIPMENT": "200471625", "ITEM_DESCRIPTION": "BBQ - WOOD SINGLE", "ITEM_TYPE": "BARBEQUE", "SAP_FUNCTIONAL_LOCATION": "B-RE-1878-N002", "PARK_NUMBER": "D0273", "PARK_NAME": "BROOKFIELD RECREATION RESERVE", "SUBURB": "BROOKFIELD", "POWER_TYPE": "WOOD FIRED", "NUMBER_OF_PLATES": 1, "LONG": 152.911385551, "LAT": -27.492388341000002 }, "geometry": { "type": "Point", "coordinates": [ 152.91138555100008, -27.49238834099998 ] } },
{ "type": "Feature", "properties": { "OBJECTID": 126, "SAP_EQUIPMENT": "200482018", "ITEM_DESCRIPTION": "BBQ - ELECTRIC SINGLE", "ITEM_TYPE": "BARBEQUE", "SAP_FUNCTIONAL_LOCATION": "B-RE-2486-N002", "PARK_NUMBER": "D0819", "PARK_NAME": "VOGLER PARK", "SUBURB": "SUNNYBANK HILLS", "POWER_TYPE": "MAINS POWER", "NUMBER_OF_PLATES": 1, "LONG": 153.051547696, "LAT": -27.606507222999898 }, "geometry": { "type": "Point", "coordinates": [ 153.051547696000057, -27.606507222999937 ] } },
{ "type": "Feature", "properties": { "OBJECTID": 127, "SAP_EQUIPMENT": "100124337", "ITEM_DESCRIPTION": "BBQ - ELECTRIC SINGLE", "ITEM_TYPE": "BARBEQUE", "SAP_FUNCTIONAL_LOCATION": "B-RE-1996-N003", "PARK_NUMBER": "D0236", "PARK_NAME": "FRANK ROBERTS PARK", "SUBURB": "WAVELL HEIGHTS", "POWER_TYPE": "MAINS POWER", "NUMBER_OF_PLATES": 1, "LONG": 153.050918516, "LAT": -27.395016754 }, "geometry": { "type": "Point", "coordinates": [ 153.050918516000024, -27.395016753999982 ] } },
{ "type": "Feature", "properties": { "OBJECTID": 128, "SAP_EQUIPMENT": "200482039", "ITEM_DESCRIPTION": "BBQ - ELECTRIC DOUBLE", "ITEM_TYPE": "BARBEQUE", "SAP_FUNCTIONAL_LOCATION": "B-RE-2018-N015", "PARK_NUMBER": "D0305", "PARK_NAME": "SHERWOOD ARBORETUM", "SUBURB": "SHERWOOD", "POWER_TYPE": "MAINS POWER", "NUMBER_OF_PLATES": 2, "LONG": 152.973229414, "LAT": -27.531999459000001 }, "geometry": { "type": "Point", "coordinates": [ 152.973229414000116, -27.531999458999962 ] } },
{ "type": "Feature", "properties": { "OBJECTID": 129, "SAP_EQUIPMENT": "200482008", "ITEM_DESCRIPTION": "BBQ - ELECTRIC SINGLE", "ITEM_TYPE": "BARBEQUE", "SAP_FUNCTIONAL_LOCATION": "B-RE-1908-N005", "PARK_NUMBER": "D0346", "PARK_NAME": "ORLEIGH PARK", "SUBURB": "WEST END", "POWER_TYPE": "MAINS POWER", "NUMBER_OF_PLATES": 1, "LONG": 152.99801527899999, "LAT": -27.489563636 }, "geometry": { "type": "Point", "coordinates": [ 152.998015279000015, -27.489563635999957 ] } },
{ "type": "Feature", "properties": { "OBJECTID": 130, "SAP_EQUIPMENT": "200488634", "ITEM_DESCRIPTION": "BBQ - ELECTRIC DOUBLE", "ITEM_TYPE": "BARBEQUE", "SAP_FUNCTIONAL_LOCATION": "B-RE-1771-N004", "PARK_NUMBER": "D0216", "PARK_NAME": "FREDERICK ANNAND PARK", "SUBURB": "CHERMSIDE WEST", "POWER_TYPE": "MAINS POWER", "NUMBER_OF_PLATES": 2, "LONG": 153.01854183, "LAT": -27.37905556 }, "geometry": { "type": "Point", "coordinates": [ 153.018541830000117, -27.379055559999983 ] } },
{ "type": "Feature", "properties": { "OBJECTID": 131, "SAP_EQUIPMENT": "200503381", "ITEM_DESCRIPTION": "BBQ - ELECTRIC SINGLE", "ITEM_TYPE": "BARBEQUE", "SAP_FUNCTIONAL_LOCATION": "B-RE-1858-N005", "PARK_NUMBER": "D0051", "PARK_NAME": "MURARRIE RECREATION GROUND", "SUBURB": "MURARRIE", "POWER_TYPE": "MAINS POWER", "NUMBER_OF_PLATES": 1, "LONG": 153.10179727, "LAT": -27.466478020999901 }, "geometry": { "type": "Point", "coordinates": [ 153.10179727000002, -27.466478020999944 ] } },
{ "type": "Feature", "properties": { "OBJECTID": 132, "SAP_EQUIPMENT": "200504679", "ITEM_DESCRIPTION": "BBQ - ELECTRIC SINGLE", "ITEM_TYPE": "BARBEQUE", "SAP_FUNCTIONAL_LOCATION": "B-RE-0328-N003", "PARK_NUMBER": "D2556", "PARK_NAME": "CHURCHILL CIRCUIT PARK", "SUBURB": "BANYO", "POWER_TYPE": "MAINS POWER", "NUMBER_OF_PLATES": 1, "LONG": 153.07955473600001, "LAT": -27.381026072999902 }, "geometry": { "type": "Point", "coordinates": [ 153.079554736000091, -27.38102607299993 ] } },
{ "type": "Feature", "properties": { "OBJECTID": 133, "SAP_EQUIPMENT": "100253087", "ITEM_DESCRIPTION": "BBQ - ELECTRIC SINGLE", "ITEM_TYPE": "BARBEQUE", "SAP_FUNCTIONAL_LOCATION": "B-RE-2317-N009", "PARK_NUMBER": "D1252", "PARK_NAME": "TINCHI TAMBA WETLANDS RESERVE", "SUBURB": "BALD HILLS", "POWER_TYPE": "MAINS POWER", "NUMBER_OF_PLATES": 1, "LONG": 153.03490339300001, "LAT": -27.299264965 }, "geometry": { "type": "Point", "coordinates": [ 153.034903393000036, -27.299264964999963 ] } },
{ "type": "Feature", "properties": { "OBJECTID": 134, "SAP_EQUIPMENT": "200504234", "ITEM_DESCRIPTION": "BBQ - ELECTRIC SINGLE", "ITEM_TYPE": "BARBEQUE", "SAP_FUNCTIONAL_LOCATION": "B-RE-0620-N004", "PARK_NUMBER": "D1810", "PARK_NAME": "PACIFIC PARADE PARK", "SUBURB": "FOREST LAKE", "POWER_TYPE": "MAINS POWER", "NUMBER_OF_PLATES": 1, "LONG": 152.97985174199999, "LAT": -27.6218976719999 }, "geometry": { "type": "Point", "coordinates": [ 152.979851742000051, -27.621897671999932 ] } },
{ "type": "Feature", "properties": { "OBJECTID": 135, "SAP_EQUIPMENT": "200515741", "ITEM_DESCRIPTION": "BBQ - ELECTRIC SINGLE", "ITEM_TYPE": "BARBEQUE", "SAP_FUNCTIONAL_LOCATION": "B-RE-1875-N004", "PARK_NUMBER": "D0276", "PARK_NAME": "SANDGATE FORESHORES PARK", "SUBURB": "SANDGATE", "POWER_TYPE": "MAINS POWER", "NUMBER_OF_PLATES": 1, "LONG": 153.06474123300001, "LAT": -27.292951758999902 }, "geometry": { "type": "Point", "coordinates": [ 153.064741233000063, -27.292951758999948 ] } },
{ "type": "Feature", "properties": { "OBJECTID": 136, "SAP_EQUIPMENT": "100270358", "ITEM_DESCRIPTION": "BBQ - ELECTRIC SINGLE", "ITEM_TYPE": "BARBEQUE", "SAP_FUNCTIONAL_LOCATION": "B-RE-0221-N001", "PARK_NUMBER": "D2993", "PARK_NAME": "MINGOOLA PARK", "SUBURB": "MURARRIE", "POWER_TYPE": "MAINS POWER", "NUMBER_OF_PLATES": 1, "LONG": 153.10152409400001, "LAT": -27.458777950999899 }, "geometry": { "type": "Point", "coordinates": [ 153.101524094000069, -27.458777950999945 ] } },
{ "type": "Feature", "properties": { "OBJECTID": 137, "SAP_EQUIPMENT": "200513024", "ITEM_DESCRIPTION": "BBQ - ELECTRIC SINGLE", "ITEM_TYPE": "BARBEQUE", "SAP_FUNCTIONAL_LOCATION": "B-RE-1588-N001", "PARK_NUMBER": "D0725", "PARK_NAME": "WISHART COMMUNITY PARK", "SUBURB": "WISHART", "POWER_TYPE": "MAINS POWER", "NUMBER_OF_PLATES": 1, "LONG": 153.103346211, "LAT": -27.560480535 }, "geometry": { "type": "Point", "coordinates": [ 153.10334621100003, -27.560480534999954 ] } },
{ "type": "Feature", "properties": { "OBJECTID": 138, "SAP_EQUIPMENT": "200516436", "ITEM_DESCRIPTION": "BBQ - ELECTRIC DOUBLE", "ITEM_TYPE": "BARBEQUE", "SAP_FUNCTIONAL_LOCATION": "B-RE-1867-N001", "PARK_NUMBER": "D0286", "PARK_NAME": "CLIFF STREET PARK", "SUBURB": "SANDGATE", "POWER_TYPE": "MAINS POWER", "NUMBER_OF_PLATES": 2, "LONG": 153.07470930900001, "LAT": -27.320578987000001 }, "geometry": { "type": "Point", "coordinates": [ 153.074709309000013, -27.320578986999976 ] } },
{ "type": "Feature", "properties": { "OBJECTID": 139, "SAP_EQUIPMENT": "200514098", "ITEM_DESCRIPTION": "BBQ - WOOD SINGLE", "ITEM_TYPE": "BARBEQUE", "SAP_FUNCTIONAL_LOCATION": "B-RE-1673-N001", "PARK_NUMBER": "D0661", "PARK_NAME": "TILLACK PARK", "SUBURB": "MANSFIELD", "POWER_TYPE": "WOOD FIRED", "NUMBER_OF_PLATES": 1, "LONG": 153.10212433800001, "LAT": -27.522443971000001 }, "geometry": { "type": "Point", "coordinates": [ 153.102124338000067, -27.522443970999973 ] } },
{ "type": "Feature", "properties": { "OBJECTID": 140, "SAP_EQUIPMENT": "100125935", "ITEM_DESCRIPTION": "BBQ - WOOD SINGLE", "ITEM_TYPE": "BARBEQUE", "SAP_FUNCTIONAL_LOCATION": "B-RE-2580-N003", "PARK_NUMBER": "D1018", "PARK_NAME": "FIG TREE COMMON PARK", "SUBURB": "FIG TREE POCKET", "POWER_TYPE": "WOOD FIRED", "NUMBER_OF_PLATES": 1, "LONG": 152.954426541, "LAT": -27.524797395 }, "geometry": { "type": "Point", "coordinates": [ 152.954426541000089, -27.52479739499995 ] } },
{ "type": "Feature", "properties": { "OBJECTID": 141, "SAP_EQUIPMENT": "200474286", "ITEM_DESCRIPTION": "BBQ - WOOD SINGLE", "ITEM_TYPE": "BARBEQUE", "SAP_FUNCTIONAL_LOCATION": "B-RE-1691-N001", "PARK_NUMBER": "D0584", "PARK_NAME": "CORMORANT STREET PARK", "SUBURB": "INALA", "POWER_TYPE": "WOOD FIRED", "NUMBER_OF_PLATES": 1, "LONG": 152.97048350099999, "LAT": -27.598925272 }, "geometry": { "type": "Point", "coordinates": [ 152.970483501000103, -27.598925271999974 ] } },
{ "type": "Feature", "properties": { "OBJECTID": 142, "SAP_EQUIPMENT": "200522568", "ITEM_DESCRIPTION": "BBQ - ELECTRIC SINGLE", "ITEM_TYPE": "BARBEQUE", "SAP_FUNCTIONAL_LOCATION": "B-RE-1865-N002", "PARK_NUMBER": "D0288", "PARK_NAME": "MOORA PARK", "SUBURB": "SHORNCLIFFE", "POWER_TYPE": "MAINS POWER", "NUMBER_OF_PLATES": 1, "LONG": 153.08488417500001, "LAT": -27.324589332 }, "geometry": { "type": "Point", "coordinates": [ 153.08488417500007, -27.32458933199996 ] } },
{ "type": "Feature", "properties": { "OBJECTID": 143, "SAP_EQUIPMENT": "100085058", "ITEM_DESCRIPTION": "BBQ - ELECTRIC DOUBLE", "ITEM_TYPE": "BARBEQUE", "SAP_FUNCTIONAL_LOCATION": "B-RE-1837-N008", "PARK_NUMBER": "D0075", "PARK_NAME": "CAPTAIN BURKE PARK", "SUBURB": "KANGAROO POINT", "POWER_TYPE": "MAINS POWER", "NUMBER_OF_PLATES": 2, "LONG": 153.034656313, "LAT": -27.465094635 }, "geometry": { "type": "Point", "coordinates": [ 153.034656313000028, -27.465094634999957 ] } },
{ "type": "Feature", "properties": { "OBJECTID": 144, "SAP_EQUIPMENT": "200527477", "ITEM_DESCRIPTION": "BBQ - ELECTRIC SINGLE", "ITEM_TYPE": "BARBEQUE", "SAP_FUNCTIONAL_LOCATION": "B-RE-1557-N008", "PARK_NUMBER": "D0680", "PARK_NAME": "KANGAROO POINT CLIFFS PARK", "SUBURB": "KANGAROO POINT", "POWER_TYPE": "MAINS POWER", "NUMBER_OF_PLATES": 1, "LONG": 153.034619945, "LAT": -27.477837215000001 }, "geometry": { "type": "Point", "coordinates": [ 153.034619945000031, -27.477837214999965 ] } },
{ "type": "Feature", "properties": { "OBJECTID": 145, "SAP_EQUIPMENT": "200532274", "ITEM_DESCRIPTION": "BBQ - ELECTRIC SINGLE", "ITEM_TYPE": "BARBEQUE", "SAP_FUNCTIONAL_LOCATION": "B-RE-1807-N003", "PARK_NUMBER": "D0015", "PARK_NAME": "KEATING PARK", "SUBURB": "INDOOROOPILLY", "POWER_TYPE": "MAINS POWER", "NUMBER_OF_PLATES": 1, "LONG": 152.97409551800001, "LAT": -27.499704897000001 }, "geometry": { "type": "Point", "coordinates": [ 152.974095518000013, -27.499704896999958 ] } },
{ "type": "Feature", "properties": { "OBJECTID": 146, "SAP_EQUIPMENT": "200528667", "ITEM_DESCRIPTION": "BBQ - WOOD SINGLE", "ITEM_TYPE": "BARBEQUE", "SAP_FUNCTIONAL_LOCATION": "B-RE-1727-N003", "PARK_NUMBER": "D0106", "PARK_NAME": "TARANA STREET PARK", "SUBURB": "CAMP HILL", "POWER_TYPE": "WOOD FIRED", "NUMBER_OF_PLATES": 1, "LONG": 153.07325830400001, "LAT": -27.495031092000001 }, "geometry": { "type": "Point", "coordinates": [ 153.073258304000092, -27.495031091999977 ] } },
{ "type": "Feature", "properties": { "OBJECTID": 147, "SAP_EQUIPMENT": "200535197", "ITEM_DESCRIPTION": "BBQ - ELECTRIC SINGLE", "ITEM_TYPE": "BARBEQUE", "SAP_FUNCTIONAL_LOCATION": "B-RE-0357-N001", "PARK_NUMBER": "D2190", "PARK_NAME": "BRUSH BOX PLACE PARK", "SUBURB": "HEATHWOOD", "POWER_TYPE": "MAINS POWER", "NUMBER_OF_PLATES": 1, "LONG": 152.99130746399999, "LAT": -27.632924697 }, "geometry": { "type": "Point", "coordinates": [ 152.991307464000101, -27.632924696999964 ] } },
{ "type": "Feature", "properties": { "OBJECTID": 148, "SAP_EQUIPMENT": "200536457", "ITEM_DESCRIPTION": "BBQ - WOOD SINGLE", "ITEM_TYPE": "BARBEQUE", "SAP_FUNCTIONAL_LOCATION": "B-RE-1901-N013", "PARK_NUMBER": "D0249", "PARK_NAME": "MT COOT-THA RESERVE", "SUBURB": "MOUNT COOT-THA", "POWER_TYPE": "WOOD FIRED", "NUMBER_OF_PLATES": 1, "LONG": 152.96984068099999, "LAT": -27.468937293 }, "geometry": { "type": "Point", "coordinates": [ 152.969840681000051, -27.468937292999954 ] } },
{ "type": "Feature", "properties": { "OBJECTID": 149, "SAP_EQUIPMENT": "100264426", "ITEM_DESCRIPTION": "BBQ - GAS DOUBLE (SOLAR IGNITION)", "ITEM_TYPE": "BARBEQUE", "SAP_FUNCTIONAL_LOCATION": "B-RE-1901-N031", "PARK_NUMBER": "D0249", "PARK_NAME": "MT COOT-THA RESERVE", "SUBURB": "MOUNT COOT-THA", "POWER_TYPE": "BOTTLED GAS", "NUMBER_OF_PLATES": 2, "LONG": 152.96850947199999, "LAT": -27.472899202999901 }, "geometry": { "type": "Point", "coordinates": [ 152.968509472000051, -27.47289920299994 ] } },
{ "type": "Feature", "properties": { "OBJECTID": 150, "SAP_EQUIPMENT": "200535892", "ITEM_DESCRIPTION": "BBQ - ELECTRIC DOUBLE", "ITEM_TYPE": "BARBEQUE", "SAP_FUNCTIONAL_LOCATION": "B-RE-0241-N004", "PARK_NUMBER": "D2613", "PARK_NAME": "WESTAWAY PARK (MOGGILL)", "SUBURB": "MOGGILL", "POWER_TYPE": "MAINS POWER", "NUMBER_OF_PLATES": 2, "LONG": 152.87282256899999, "LAT": -27.570881702999898 }, "geometry": { "type": "Point", "coordinates": [ 152.87282256900005, -27.570881702999941 ] } },
{ "type": "Feature", "properties": { "OBJECTID": 151, "SAP_EQUIPMENT": "100115345", "ITEM_DESCRIPTION": "BBQ - GAS DOUBLE (SOLAR IGNITION)", "ITEM_TYPE": "BARBEQUE", "SAP_FUNCTIONAL_LOCATION": "B-RE-1901-N002", "PARK_NUMBER": "D0249", "PARK_NAME": "MT COOT-THA RESERVE", "SUBURB": "MOUNT COOT-THA", "POWER_TYPE": "BOTTLED GAS", "NUMBER_OF_PLATES": 2, "LONG": 152.96418422799999, "LAT": -27.466126452000001 }, "geometry": { "type": "Point", "coordinates": [ 152.964184228000022, -27.466126451999969 ] } },
{ "type": "Feature", "properties": { "OBJECTID": 152, "SAP_EQUIPMENT": "200542926", "ITEM_DESCRIPTION": "BBQ - GAS DOUBLE (SOLAR IGNITION)", "ITEM_TYPE": "BARBEQUE", "SAP_FUNCTIONAL_LOCATION": "B-RE-1901-N008", "PARK_NUMBER": "D0249", "PARK_NAME": "MT COOT-THA RESERVE", "SUBURB": "MOUNT COOT-THA", "POWER_TYPE": "BOTTLED GAS", "NUMBER_OF_PLATES": 2, "LONG": 152.95840446599999, "LAT": -27.466544959 }, "geometry": { "type": "Point", "coordinates": [ 152.958404466000047, -27.466544958999975 ] } },
{ "type": "Feature", "properties": { "OBJECTID": 153, "SAP_EQUIPMENT": "100289531", "ITEM_DESCRIPTION": "BBQ - ELECTRIC SINGLE", "ITEM_TYPE": "BARBEQUE", "SAP_FUNCTIONAL_LOCATION": "B-RE-1770-N004", "PARK_NUMBER": "D0217", "PARK_NAME": "ASPLEY REST PARK", "SUBURB": "CARSELDINE", "POWER_TYPE": "MAINS POWER", "NUMBER_OF_PLATES": 1, "LONG": 153.01537208100001, "LAT": -27.355766853 }, "geometry": { "type": "Point", "coordinates": [ 153.01537208100001, -27.355766852999977 ] } },
{ "type": "Feature", "properties": { "OBJECTID": 154, "SAP_EQUIPMENT": "200548904", "ITEM_DESCRIPTION": "BBQ - ELECTRIC SINGLE", "ITEM_TYPE": "BARBEQUE", "SAP_FUNCTIONAL_LOCATION": "B-RE-2294-N001", "PARK_NUMBER": "D1335", "PARK_NAME": "MACKENZIE PARK", "SUBURB": "MACKENZIE", "POWER_TYPE": "MAINS POWER", "NUMBER_OF_PLATES": 1, "LONG": 153.125904636, "LAT": -27.542340324999898 }, "geometry": { "type": "Point", "coordinates": [ 153.125904636000087, -27.542340324999941 ] } },
{ "type": "Feature", "properties": { "OBJECTID": 155, "SAP_EQUIPMENT": "200549013", "ITEM_DESCRIPTION": "BBQ - ELECTRIC DOUBLE", "ITEM_TYPE": "BARBEQUE", "SAP_FUNCTIONAL_LOCATION": "B-RE-1698-N007", "PARK_NUMBER": "D0126", "PARK_NAME": "SID LODER PARK", "SUBURB": "MITCHELTON", "POWER_TYPE": "MAINS POWER", "NUMBER_OF_PLATES": 2, "LONG": 152.977886517, "LAT": -27.417219246999899 }, "geometry": { "type": "Point", "coordinates": [ 152.977886517000115, -27.417219246999935 ] } },
{ "type": "Feature", "properties": { "OBJECTID": 156, "SAP_EQUIPMENT": "100123880", "ITEM_DESCRIPTION": "BBQ - ELECTRIC SINGLE", "ITEM_TYPE": "BARBEQUE", "SAP_FUNCTIONAL_LOCATION": "B-RE-1637-N002", "PARK_NUMBER": "D0554", "PARK_NAME": "ROSEBANK SQUARE", "SUBURB": "SALISBURY", "POWER_TYPE": "MAINS POWER", "NUMBER_OF_PLATES": 1, "LONG": 153.04295347300001, "LAT": -27.5555409749999 }, "geometry": { "type": "Point", "coordinates": [ 153.042953473000011, -27.555540974999928 ] } },
{ "type": "Feature", "properties": { "OBJECTID": 157, "SAP_EQUIPMENT": "200551856", "ITEM_DESCRIPTION": "BBQ - ELECTRIC SINGLE", "ITEM_TYPE": "BARBEQUE", "SAP_FUNCTIONAL_LOCATION": "B-RE-0234-N001", "PARK_NUMBER": "D2635", "PARK_NAME": "HAZEL STREET PARK", "SUBURB": "HEATHWOOD", "POWER_TYPE": "MAINS POWER", "NUMBER_OF_PLATES": 1, "LONG": 152.988530419, "LAT": -27.634412206 }, "geometry": { "type": "Point", "coordinates": [ 152.988530419000085, -27.634412205999979 ] } },
{ "type": "Feature", "properties": { "OBJECTID": 158, "SAP_EQUIPMENT": "200560920", "ITEM_DESCRIPTION": "BBQ - ELECTRIC SINGLE", "ITEM_TYPE": "BARBEQUE", "SAP_FUNCTIONAL_LOCATION": "B-RE-0233-N006", "PARK_NUMBER": "D2672", "PARK_NAME": "BULIMBA RIVERSIDE PARK", "SUBURB": "BULIMBA", "POWER_TYPE": "MAINS POWER", "NUMBER_OF_PLATES": 1, "LONG": 153.05372201, "LAT": -27.453512370999899 }, "geometry": { "type": "Point", "coordinates": [ 153.053722010000115, -27.453512370999931 ] } },
{ "type": "Feature", "properties": { "OBJECTID": 159, "SAP_EQUIPMENT": "200560927", "ITEM_DESCRIPTION": "BBQ - ELECTRIC DOUBLE", "ITEM_TYPE": "BARBEQUE", "SAP_FUNCTIONAL_LOCATION": "B-RE-1920-N004", "PARK_NUMBER": "D0338", "PARK_NAME": "JINDALEE BOAT RAMP PARK", "SUBURB": "JINDALEE", "POWER_TYPE": "MAINS POWER", "NUMBER_OF_PLATES": 2, "LONG": 152.928667158, "LAT": -27.5300091739999 }, "geometry": { "type": "Point", "coordinates": [ 152.928667158000053, -27.530009173999929 ] } },
{ "type": "Feature", "properties": { "OBJECTID": 160, "SAP_EQUIPMENT": "200560928", "ITEM_DESCRIPTION": "BBQ - ELECTRIC DOUBLE", "ITEM_TYPE": "BARBEQUE", "SAP_FUNCTIONAL_LOCATION": "B-RE-1920-N004", "PARK_NUMBER": "D0338", "PARK_NAME": "JINDALEE BOAT RAMP PARK", "SUBURB": "JINDALEE", "POWER_TYPE": "MAINS POWER", "NUMBER_OF_PLATES": 2, "LONG": 152.92838798700001, "LAT": -27.5305029959999 }, "geometry": { "type": "Point", "coordinates": [ 152.928387987000065, -27.530502995999939 ] } },
{ "type": "Feature", "properties": { "OBJECTID": 161, "SAP_EQUIPMENT": "200559366", "ITEM_DESCRIPTION": "BBQ - ELECTRIC SINGLE", "ITEM_TYPE": "BARBEQUE", "SAP_FUNCTIONAL_LOCATION": "B-RE-0170-N002", "PARK_NUMBER": "D2005", "PARK_NAME": "DAINTREE DRIVE PARK (NO.65)", "SUBURB": "PARKINSON", "POWER_TYPE": "MAINS POWER", "NUMBER_OF_PLATES": 1, "LONG": 153.030823226, "LAT": -27.6413082719999 }, "geometry": { "type": "Point", "coordinates": [ 153.030823226000052, -27.641308271999947 ] } },
{ "type": "Feature", "properties": { "OBJECTID": 162, "SAP_EQUIPMENT": "200560683", "ITEM_DESCRIPTION": "BBQ - ELECTRIC SINGLE", "ITEM_TYPE": "BARBEQUE", "SAP_FUNCTIONAL_LOCATION": "B-RE-1736-N002", "PARK_NUMBER": "D0095", "PARK_NAME": "NEW FARM PARK", "SUBURB": "NEW FARM", "POWER_TYPE": "MAINS POWER", "NUMBER_OF_PLATES": 1, "LONG": 153.05251330799999, "LAT": -27.4687012119999 }, "geometry": { "type": "Point", "coordinates": [ 153.052513308000016, -27.468701211999928 ] } },
{ "type": "Feature", "properties": { "OBJECTID": 163, "SAP_EQUIPMENT": "200560507", "ITEM_DESCRIPTION": "BBQ - ELECTRIC DOUBLE", "ITEM_TYPE": "BARBEQUE", "SAP_FUNCTIONAL_LOCATION": "B-RE-1426-N010", "PARK_NUMBER": "D0530", "PARK_NAME": "LOTA CAMPING RESERVE", "SUBURB": "LOTA", "POWER_TYPE": "MAINS POWER", "NUMBER_OF_PLATES": 2, "LONG": 153.19243595899999, "LAT": -27.466632599 }, "geometry": { "type": "Point", "coordinates": [ 153.192435959000022, -27.466632598999979 ] } },
{ "type": "Feature", "properties": { "OBJECTID": 164, "SAP_EQUIPMENT": "200570294", "ITEM_DESCRIPTION": "BBQ - ELECTRIC DOUBLE", "ITEM_TYPE": "BARBEQUE", "SAP_FUNCTIONAL_LOCATION": "B-RE-1736-N018", "PARK_NUMBER": "D0095", "PARK_NAME": "NEW FARM PARK", "SUBURB": "NEW FARM", "POWER_TYPE": "MAINS POWER", "NUMBER_OF_PLATES": 2, "LONG": 153.053371484, "LAT": -27.470045925000001 }, "geometry": { "type": "Point", "coordinates": [ 153.053371484000081, -27.470045924999965 ] } },
{ "type": "Feature", "properties": { "OBJECTID": 165, "SAP_EQUIPMENT": "200477432", "ITEM_DESCRIPTION": "BBQ - WOOD SINGLE", "ITEM_TYPE": "BARBEQUE", "SAP_FUNCTIONAL_LOCATION": "B-RE-2184-N001", "PARK_NUMBER": "D1186", "PARK_NAME": "MARTINDALE STREET PARK", "SUBURB": "CHERMSIDE WEST", "POWER_TYPE": "WOOD FIRED", "NUMBER_OF_PLATES": 1, "LONG": 153.00497083299999, "LAT": -27.375077858999902 }, "geometry": { "type": "Point", "coordinates": [ 153.004970833000016, -27.37507785899993 ] } },
{ "type": "Feature", "properties": { "OBJECTID": 166, "SAP_EQUIPMENT": "200501719", "ITEM_DESCRIPTION": "BBQ - ELECTRIC SINGLE", "ITEM_TYPE": "BARBEQUE", "SAP_FUNCTIONAL_LOCATION": "B-RE-1370-N003", "PARK_NUMBER": "D0471", "PARK_NAME": "TOOWONG MEMORIAL PARK", "SUBURB": "TOOWONG", "POWER_TYPE": "MAINS POWER", "NUMBER_OF_PLATES": 1, "LONG": 152.992272501, "LAT": -27.48050058 }, "geometry": { "type": "Point", "coordinates": [ 152.992272501000116, -27.480500579999955 ] } },
{ "type": "Feature", "properties": { "OBJECTID": 167, "SAP_EQUIPMENT": "200477865", "ITEM_DESCRIPTION": "BBQ - WOOD SINGLE", "ITEM_TYPE": "BARBEQUE", "SAP_FUNCTIONAL_LOCATION": "B-RE-2495-N003", "PARK_NUMBER": "D0864", "PARK_NAME": "MARMINDIE STREET PARK", "SUBURB": "CHAPEL HILL", "POWER_TYPE": "WOOD FIRED", "NUMBER_OF_PLATES": 1, "LONG": 152.947904118, "LAT": -27.492887440999901 }, "geometry": { "type": "Point", "coordinates": [ 152.94790411800011, -27.492887440999937 ] } },
{ "type": "Feature", "properties": { "OBJECTID": 168, "SAP_EQUIPMENT": "200472683", "ITEM_DESCRIPTION": "BBQ - ELECTRIC SINGLE", "ITEM_TYPE": "BARBEQUE", "SAP_FUNCTIONAL_LOCATION": "B-RE-2008-N006", "PARK_NUMBER": "D0317", "PARK_NAME": "NIXON PARK", "SUBURB": "OXLEY", "POWER_TYPE": "MAINS POWER", "NUMBER_OF_PLATES": 1, "LONG": 152.97914079399999, "LAT": -27.551996996 }, "geometry": { "type": "Point", "coordinates": [ 152.979140794000045, -27.551996995999957 ] } },
{ "type": "Feature", "properties": { "OBJECTID": 169, "SAP_EQUIPMENT": "200472997", "ITEM_DESCRIPTION": "BBQ - ELECTRIC SINGLE", "ITEM_TYPE": "BARBEQUE", "SAP_FUNCTIONAL_LOCATION": "B-RE-1594-N001", "PARK_NUMBER": "D0650", "PARK_NAME": "JAMBOREE LIONS COMMUNITY PARK", "SUBURB": "MIDDLE PARK", "POWER_TYPE": "MAINS POWER", "NUMBER_OF_PLATES": 1, "LONG": 152.918095733, "LAT": -27.558950274000001 }, "geometry": { "type": "Point", "coordinates": [ 152.918095733000087, -27.558950273999983 ] } },
{ "type": "Feature", "properties": { "OBJECTID": 170, "SAP_EQUIPMENT": "200501938", "ITEM_DESCRIPTION": "BBQ - ELECTRIC SINGLE", "ITEM_TYPE": "BARBEQUE", "SAP_FUNCTIONAL_LOCATION": "B-RE-1447-N009", "PARK_NUMBER": "D0438", "PARK_NAME": "NUDGEE BEACH RESERVE", "SUBURB": "NUDGEE BEACH", "POWER_TYPE": "MAINS POWER", "NUMBER_OF_PLATES": 1, "LONG": 153.103917763, "LAT": -27.34529357 }, "geometry": { "type": "Point", "coordinates": [ 153.103917763000027, -27.345293569999967 ] } },
{ "type": "Feature", "properties": { "OBJECTID": 171, "SAP_EQUIPMENT": "200500844", "ITEM_DESCRIPTION": "BBQ - ELECTRIC DOUBLE", "ITEM_TYPE": "BARBEQUE", "SAP_FUNCTIONAL_LOCATION": "B-RE-1875-N012", "PARK_NUMBER": "D0276", "PARK_NAME": "SANDGATE FORESHORES PARK", "SUBURB": "SANDGATE", "POWER_TYPE": "MAINS POWER", "NUMBER_OF_PLATES": 2, "LONG": 153.083591165, "LAT": -27.322287559 }, "geometry": { "type": "Point", "coordinates": [ 153.08359116500003, -27.32228755899996 ] } },
{ "type": "Feature", "properties": { "OBJECTID": 172, "SAP_EQUIPMENT": "200500848", "ITEM_DESCRIPTION": "BBQ - ELECTRIC DOUBLE", "ITEM_TYPE": "BARBEQUE", "SAP_FUNCTIONAL_LOCATION": "B-RE-1875-N026", "PARK_NUMBER": "D0276", "PARK_NAME": "SANDGATE FORESHORES PARK", "SUBURB": "SANDGATE", "POWER_TYPE": "MAINS POWER", "NUMBER_OF_PLATES": 2, "LONG": 153.084255716, "LAT": -27.32338913 }, "geometry": { "type": "Point", "coordinates": [ 153.08425571600003, -27.323389129999953 ] } },
{ "type": "Feature", "properties": { "OBJECTID": 173, "SAP_EQUIPMENT": "200484060", "ITEM_DESCRIPTION": "BBQ - ELECTRIC SINGLE", "ITEM_TYPE": "BARBEQUE", "SAP_FUNCTIONAL_LOCATION": "B-RE-0029-N003", "PARK_NUMBER": "D0956", "PARK_NAME": "BUNDABAH DRIVE PARK", "SUBURB": "CALAMVALE", "POWER_TYPE": "MAINS POWER", "NUMBER_OF_PLATES": 1, "LONG": 153.03831621399999, "LAT": -27.616819158999899 }, "geometry": { "type": "Point", "coordinates": [ 153.038316214000019, -27.616819158999931 ] } },
{ "type": "Feature", "properties": { "OBJECTID": 174, "SAP_EQUIPMENT": "200488910", "ITEM_DESCRIPTION": "BBQ - ELECTRIC SINGLE", "ITEM_TYPE": "BARBEQUE", "SAP_FUNCTIONAL_LOCATION": "B-RE-0167-N001", "PARK_NUMBER": "D2009", "PARK_NAME": "MACQUARIE WAY PARK (NO.123)", "SUBURB": "DREWVALE", "POWER_TYPE": "MAINS POWER", "NUMBER_OF_PLATES": 1, "LONG": 153.057090918, "LAT": -27.652989534 }, "geometry": { "type": "Point", "coordinates": [ 153.057090918000085, -27.652989533999971 ] } },
{ "type": "Feature", "properties": { "OBJECTID": 175, "SAP_EQUIPMENT": "200488913", "ITEM_DESCRIPTION": "BBQ - ELECTRIC SINGLE", "ITEM_TYPE": "BARBEQUE", "SAP_FUNCTIONAL_LOCATION": "B-RE-1629-N010", "PARK_NUMBER": "D0563", "PARK_NAME": "MORTIMER ROAD PARK", "SUBURB": "ACACIA RIDGE", "POWER_TYPE": "MAINS POWER", "NUMBER_OF_PLATES": 1, "LONG": 153.01679310399999, "LAT": -27.5779010329999 }, "geometry": { "type": "Point", "coordinates": [ 153.016793104000044, -27.577901032999932 ] } },
{ "type": "Feature", "properties": { "OBJECTID": 176, "SAP_EQUIPMENT": "100119620", "ITEM_DESCRIPTION": "BBQ - ELECTRIC SINGLE", "ITEM_TYPE": "BARBEQUE", "SAP_FUNCTIONAL_LOCATION": "B-RE-1988-N004", "PARK_NUMBER": "D0244", "PARK_NAME": "BOWDEN PARK", "SUBURB": "GEEBUNG", "POWER_TYPE": "MAINS POWER", "NUMBER_OF_PLATES": 1, "LONG": 153.04976229, "LAT": -27.374220894 }, "geometry": { "type": "Point", "coordinates": [ 153.049762290000103, -27.374220893999961 ] } },
{ "type": "Feature", "properties": { "OBJECTID": 177, "SAP_EQUIPMENT": "200482666", "ITEM_DESCRIPTION": "BBQ - WOOD SINGLE", "ITEM_TYPE": "BARBEQUE", "SAP_FUNCTIONAL_LOCATION": "B-RE-2399-N007", "PARK_NUMBER": "D0824", "PARK_NAME": "GRACEVILLE RIVERSIDE PARKLANDS", "SUBURB": "GRACEVILLE", "POWER_TYPE": "WOOD FIRED", "NUMBER_OF_PLATES": 1, "LONG": 152.9924944, "LAT": -27.522995071 }, "geometry": { "type": "Point", "coordinates": [ 152.992494400000055, -27.522995070999968 ] } },
{ "type": "Feature", "properties": { "OBJECTID": 178, "SAP_EQUIPMENT": "200482688", "ITEM_DESCRIPTION": "BBQ - ELECTRIC DOUBLE", "ITEM_TYPE": "BARBEQUE", "SAP_FUNCTIONAL_LOCATION": "B-RE-1715-N002", "PARK_NUMBER": "D0206", "PARK_NAME": "BOLES STREET PARK", "SUBURB": "STAFFORD", "POWER_TYPE": "MAINS POWER", "NUMBER_OF_PLATES": 2, "LONG": 153.002801221, "LAT": -27.406372838 }, "geometry": { "type": "Point", "coordinates": [ 153.002801221000027, -27.406372837999982 ] } },
{ "type": "Feature", "properties": { "OBJECTID": 179, "SAP_EQUIPMENT": "200471405", "ITEM_DESCRIPTION": "BBQ - ELECTRIC SINGLE", "ITEM_TYPE": "BARBEQUE", "SAP_FUNCTIONAL_LOCATION": "B-RE-2176-N001", "PARK_NUMBER": "D1194", "PARK_NAME": "SPRINGFIELD CRESCENT PARK", "SUBURB": "PARKINSON", "POWER_TYPE": "MAINS POWER", "NUMBER_OF_PLATES": 1, "LONG": 153.03174560400001, "LAT": -27.632608858000001 }, "geometry": { "type": "Point", "coordinates": [ 153.031745604000093, -27.632608857999969 ] } },
{ "type": "Feature", "properties": { "OBJECTID": 180, "SAP_EQUIPMENT": "200489036", "ITEM_DESCRIPTION": "BBQ - ELECTRIC SINGLE", "ITEM_TYPE": "BARBEQUE", "SAP_FUNCTIONAL_LOCATION": "B-RE-1738-N004", "PARK_NUMBER": "D0160", "PARK_NAME": "WALTON BRIDGE RESERVE", "SUBURB": "THE GAP", "POWER_TYPE": "MAINS POWER", "NUMBER_OF_PLATES": 1, "LONG": 152.95425113300001, "LAT": -27.4447486 }, "geometry": { "type": "Point", "coordinates": [ 152.954251133000071, -27.444748599999969 ] } },
{ "type": "Feature", "properties": { "OBJECTID": 181, "SAP_EQUIPMENT": "200484788", "ITEM_DESCRIPTION": "BBQ - ELECTRIC SINGLE", "ITEM_TYPE": "BARBEQUE", "SAP_FUNCTIONAL_LOCATION": "B-RE-0698-N001", "PARK_NUMBER": "D1815", "PARK_NAME": "CARNARVON WAY PARK", "SUBURB": "MURARRIE", "POWER_TYPE": "MAINS POWER", "NUMBER_OF_PLATES": 1, "LONG": 153.09530987599999, "LAT": -27.461634751999998 }, "geometry": { "type": "Point", "coordinates": [ 153.095309876000101, -27.461634751999952 ] } },
{ "type": "Feature", "properties": { "OBJECTID": 182, "SAP_EQUIPMENT": "100125831", "ITEM_DESCRIPTION": "BBQ - ELECTRIC SINGLE", "ITEM_TYPE": "BARBEQUE", "SAP_FUNCTIONAL_LOCATION": "B-RE-1423-N006", "PARK_NUMBER": "D0534", "PARK_NAME": "COX PARK", "SUBURB": "LOTA", "POWER_TYPE": "MAINS POWER", "NUMBER_OF_PLATES": 1, "LONG": 153.185026077, "LAT": -27.46979192 }, "geometry": { "type": "Point", "coordinates": [ 153.185026077000089, -27.469791919999977 ] } },
{ "type": "Feature", "properties": { "OBJECTID": 183, "SAP_EQUIPMENT": "200486548", "ITEM_DESCRIPTION": "BBQ - ELECTRIC SINGLE", "ITEM_TYPE": "BARBEQUE", "SAP_FUNCTIONAL_LOCATION": "B-RE-1584-N007", "PARK_NUMBER": "D0730", "PARK_NAME": "BERYL ROBERTS PARK", "SUBURB": "COOPERS PLAINS", "POWER_TYPE": "MAINS POWER", "NUMBER_OF_PLATES": 1, "LONG": 153.04168665399999, "LAT": -27.566398498999899 }, "geometry": { "type": "Point", "coordinates": [ 153.041686654000046, -27.566398498999945 ] } },
{ "type": "Feature", "properties": { "OBJECTID": 184, "SAP_EQUIPMENT": "200478510", "ITEM_DESCRIPTION": "BBQ - ELECTRIC SINGLE", "ITEM_TYPE": "BARBEQUE", "SAP_FUNCTIONAL_LOCATION": "B-RE-0017-N002", "PARK_NUMBER": "D0498", "PARK_NAME": "LANHAM PARK", "SUBURB": "GRANGE", "POWER_TYPE": "MAINS POWER", "NUMBER_OF_PLATES": 1, "LONG": 153.018703491, "LAT": -27.424136785000002 }, "geometry": { "type": "Point", "coordinates": [ 153.01870349100011, -27.424136784999973 ] } },
{ "type": "Feature", "properties": { "OBJECTID": 185, "SAP_EQUIPMENT": "100083817", "ITEM_DESCRIPTION": "BBQ - WOOD SINGLE", "ITEM_TYPE": "BARBEQUE", "SAP_FUNCTIONAL_LOCATION": "B-RE-1851-N002", "PARK_NUMBER": "D0059", "PARK_NAME": "CHESTER PARK RESERVE", "SUBURB": "MOUNT GRAVATT EAST", "POWER_TYPE": "WOOD FIRED", "NUMBER_OF_PLATES": 1, "LONG": 153.08375399100001, "LAT": -27.527773821 }, "geometry": { "type": "Point", "coordinates": [ 153.083753991000094, -27.527773820999982 ] } },
{ "type": "Feature", "properties": { "OBJECTID": 186, "SAP_EQUIPMENT": "200477556", "ITEM_DESCRIPTION": "BBQ - ELECTRIC SINGLE", "ITEM_TYPE": "BARBEQUE", "SAP_FUNCTIONAL_LOCATION": "B-RE-2003-N003", "PARK_NUMBER": "D0229", "PARK_NAME": "JOHN PATTERSON PARK", "SUBURB": "CHERMSIDE", "POWER_TYPE": "MAINS POWER", "NUMBER_OF_PLATES": 1, "LONG": 153.02767399300001, "LAT": -27.3881812119999 }, "geometry": { "type": "Point", "coordinates": [ 153.027673993000121, -27.388181211999949 ] } },
{ "type": "Feature", "properties": { "OBJECTID": 187, "SAP_EQUIPMENT": "100086027", "ITEM_DESCRIPTION": "BBQ - ELECTRIC DOUBLE", "ITEM_TYPE": "BARBEQUE", "SAP_FUNCTIONAL_LOCATION": "B-RE-1155-N002", "PARK_NUMBER": "D3712", "PARK_NAME": "NORTHSHORE RIVERSIDE PARK", "SUBURB": "HAMILTON", "POWER_TYPE": "MAINS POWER", "NUMBER_OF_PLATES": 2, "LONG": 153.08577342699999, "LAT": -27.444790554000001 }, "geometry": { "type": "Point", "coordinates": [ 153.085773427000049, -27.444790553999951 ] } },
{ "type": "Feature", "properties": { "OBJECTID": 188, "SAP_EQUIPMENT": "100086028", "ITEM_DESCRIPTION": "BBQ - ELECTRIC SINGLE", "ITEM_TYPE": "BARBEQUE", "SAP_FUNCTIONAL_LOCATION": "B-RE-1155-N002", "PARK_NUMBER": "D3712", "PARK_NAME": "NORTHSHORE RIVERSIDE PARK", "SUBURB": "HAMILTON", "POWER_TYPE": "MAINS POWER", "NUMBER_OF_PLATES": 1, "LONG": 153.085559558, "LAT": -27.4449472639999 }, "geometry": { "type": "Point", "coordinates": [ 153.085559558000114, -27.44494726399995 ] } },
{ "type": "Feature", "properties": { "OBJECTID": 189, "SAP_EQUIPMENT": "100086066", "ITEM_DESCRIPTION": "BBQ - ELECTRIC DOUBLE", "ITEM_TYPE": "BARBEQUE", "SAP_FUNCTIONAL_LOCATION": "B-RE-0416-N009", "PARK_NUMBER": "D1723", "PARK_NAME": "FREW PARK", "SUBURB": "MILTON", "POWER_TYPE": "MAINS POWER", "NUMBER_OF_PLATES": 2, "LONG": 152.99941261199999, "LAT": -27.468922655 }, "geometry": { "type": "Point", "coordinates": [ 152.999412612000015, -27.468922654999972 ] } },
{ "type": "Feature", "properties": { "OBJECTID": 190, "SAP_EQUIPMENT": "200558942", "ITEM_DESCRIPTION": "BBQ - ELECTRIC DOUBLE", "ITEM_TYPE": "BARBEQUE", "SAP_FUNCTIONAL_LOCATION": "B-RE-1453-N008", "PARK_NUMBER": "D0389", "PARK_NAME": "YERONGA MEMORIAL PARK", "SUBURB": "YERONGA", "POWER_TYPE": "MAINS POWER", "NUMBER_OF_PLATES": 2, "LONG": 153.02262507699999, "LAT": -27.521222509000001 }, "geometry": { "type": "Point", "coordinates": [ 153.022625077000043, -27.521222508999983 ] } },
{ "type": "Feature", "properties": { "OBJECTID": 191, "SAP_EQUIPMENT": "100104043", "ITEM_DESCRIPTION": "BBQ - WOOD SINGLE", "ITEM_TYPE": "BARBEQUE", "SAP_FUNCTIONAL_LOCATION": "B-RE-1373-N004", "PARK_NUMBER": "D0467", "PARK_NAME": "ANZAC PARK", "SUBURB": "MOUNT COOT-THA", "POWER_TYPE": "WOOD FIRED", "NUMBER_OF_PLATES": 1, "LONG": 152.98150281100001, "LAT": -27.478940511000001 }, "geometry": { "type": "Point", "coordinates": [ 152.981502811000041, -27.478940510999962 ] } },
{ "type": "Feature", "properties": { "OBJECTID": 192, "SAP_EQUIPMENT": "100108300", "ITEM_DESCRIPTION": "BBQ - ELECTRIC SINGLE", "ITEM_TYPE": "BARBEQUE", "SAP_FUNCTIONAL_LOCATION": "B-RE-2722-N002", "PARK_NUMBER": "D2165", "PARK_NAME": "CAPE ARID PARK", "SUBURB": "FITZGIBBON", "POWER_TYPE": "MAINS POWER", "NUMBER_OF_PLATES": 1, "LONG": 153.024688755, "LAT": -27.336756293999901 }, "geometry": { "type": "Point", "coordinates": [ 153.024688755000057, -27.33675629399994 ] } },
{ "type": "Feature", "properties": { "OBJECTID": 193, "SAP_EQUIPMENT": "100108591", "ITEM_DESCRIPTION": "BBQ - ELECTRIC SINGLE", "ITEM_TYPE": "BARBEQUE", "SAP_FUNCTIONAL_LOCATION": "B-RE-1807-N003", "PARK_NUMBER": "D0015", "PARK_NAME": "KEATING PARK", "SUBURB": "INDOOROOPILLY", "POWER_TYPE": "MAINS POWER", "NUMBER_OF_PLATES": 1, "LONG": 152.97469413900001, "LAT": -27.499821636 }, "geometry": { "type": "Point", "coordinates": [ 152.974694139000121, -27.499821635999979 ] } },
{ "type": "Feature", "properties": { "OBJECTID": 194, "SAP_EQUIPMENT": "100280021", "ITEM_DESCRIPTION": "BBQ - ELECTRIC SINGLE", "ITEM_TYPE": "BARBEQUE", "SAP_FUNCTIONAL_LOCATION": "B-RE-2099-N014", "PARK_NUMBER": "D1279", "PARK_NAME": "THE LAKE PARKLANDS", "SUBURB": "FOREST LAKE", "POWER_TYPE": "MAINS POWER", "NUMBER_OF_PLATES": 1, "LONG": 152.96265904800001, "LAT": -27.62014282 }, "geometry": { "type": "Point", "coordinates": [ 152.962659048000091, -27.620142819999955 ] } },
{ "type": "Feature", "properties": { "OBJECTID": 195, "SAP_EQUIPMENT": "200472843", "ITEM_DESCRIPTION": "BBQ - WOOD SINGLE", "ITEM_TYPE": "BARBEQUE", "SAP_FUNCTIONAL_LOCATION": "B-RE-2388-N004", "PARK_NUMBER": "D0910", "PARK_NAME": "CLARINA STREET PARK", "SUBURB": "CHAPEL HILL", "POWER_TYPE": "WOOD FIRED", "NUMBER_OF_PLATES": 1, "LONG": 152.96049136299999, "LAT": -27.500233173000002 }, "geometry": { "type": "Point", "coordinates": [ 152.960491363000074, -27.50023317299997 ] } },
{ "type": "Feature", "properties": { "OBJECTID": 196, "SAP_EQUIPMENT": "100270380", "ITEM_DESCRIPTION": "BBQ - GAS DOUBLE (SOLAR IGNITION)", "ITEM_TYPE": "BARBEQUE", "SAP_FUNCTIONAL_LOCATION": "B-RE-1901-N008", "PARK_NUMBER": "D0249", "PARK_NAME": "MT COOT-THA RESERVE", "SUBURB": "MOUNT COOT-THA", "POWER_TYPE": "BOTTLED GAS", "NUMBER_OF_PLATES": 2, "LONG": 152.95899873100001, "LAT": -27.466069295 }, "geometry": { "type": "Point", "coordinates": [ 152.958998731000065, -27.466069294999954 ] } },
{ "type": "Feature", "properties": { "OBJECTID": 197, "SAP_EQUIPMENT": "100271053", "ITEM_DESCRIPTION": "BBQ - ELECTRIC DOUBLE", "ITEM_TYPE": "BARBEQUE", "SAP_FUNCTIONAL_LOCATION": "B-RE-1152-N002", "PARK_NUMBER": "D3754", "PARK_NAME": "OLD SHORELINE PARK", "SUBURB": "HAMILTON", "POWER_TYPE": "MAINS POWER", "NUMBER_OF_PLATES": 2, "LONG": 153.08449844099999, "LAT": -27.440981176000001 }, "geometry": { "type": "Point", "coordinates": [ 153.084498441000051, -27.44098117599998 ] } },
{ "type": "Feature", "properties": { "OBJECTID": 198, "SAP_EQUIPMENT": "100275138", "ITEM_DESCRIPTION": "BBQ - ELECTRIC DOUBLE", "ITEM_TYPE": "BARBEQUE", "SAP_FUNCTIONAL_LOCATION": "B-RE-1837-N003", "PARK_NUMBER": "D0075", "PARK_NAME": "CAPTAIN BURKE PARK", "SUBURB": "KANGAROO POINT", "POWER_TYPE": "MAINS POWER", "NUMBER_OF_PLATES": 2, "LONG": 153.03627351599999, "LAT": -27.46524626 }, "geometry": { "type": "Point", "coordinates": [ 153.036273516000051, -27.465246259999958 ] } },
{ "type": "Feature", "properties": { "OBJECTID": 199, "SAP_EQUIPMENT": "100280023", "ITEM_DESCRIPTION": "BBQ - ELECTRIC DOUBLE", "ITEM_TYPE": "BARBEQUE", "SAP_FUNCTIONAL_LOCATION": "B-RE-1992-N002", "PARK_NUMBER": "D0240", "PARK_NAME": "DONNA PHILP PARK", "SUBURB": "BOONDALL", "POWER_TYPE": "MAINS POWER", "NUMBER_OF_PLATES": 2, "LONG": 153.06521185599999, "LAT": -27.351406391999902 }, "geometry": { "type": "Point", "coordinates": [ 153.065211856000019, -27.351406391999944 ] } },
{ "type": "Feature", "properties": { "OBJECTID": 200, "SAP_EQUIPMENT": "100280862", "ITEM_DESCRIPTION": "BBQ - ELECTRIC DOUBLE", "ITEM_TYPE": "BARBEQUE", "SAP_FUNCTIONAL_LOCATION": "B-RE-0508-N004", "PARK_NUMBER": "D1617", "PARK_NAME": "GREENWAYS ESPLANADE PARK", "SUBURB": "PARKINSON", "POWER_TYPE": "MAINS POWER", "NUMBER_OF_PLATES": 2, "LONG": 153.020389623, "LAT": -27.63689235 }, "geometry": { "type": "Point", "coordinates": [ 153.020389623000028, -27.636892349999982 ] } },
{ "type": "Feature", "properties": { "OBJECTID": 201, "SAP_EQUIPMENT": "100290094", "ITEM_DESCRIPTION": "BBQ - ELECTRIC DOUBLE", "ITEM_TYPE": "BARBEQUE", "SAP_FUNCTIONAL_LOCATION": "B-RE-2008-N003", "PARK_NUMBER": "D0317", "PARK_NAME": "NIXON PARK", "SUBURB": "OXLEY", "POWER_TYPE": "MAINS POWER", "NUMBER_OF_PLATES": 2, "LONG": 152.97826079500001, "LAT": -27.5524665199999 }, "geometry": { "type": "Point", "coordinates": [ 152.978260795000097, -27.552466519999939 ] } },
{ "type": "Feature", "properties": { "OBJECTID": 202, "SAP_EQUIPMENT": "100290201", "ITEM_DESCRIPTION": "BBQ - ELECTRIC DOUBLE", "ITEM_TYPE": "BARBEQUE", "SAP_FUNCTIONAL_LOCATION": "B-RE-2860-N004", "PARK_NUMBER": "D2250", "PARK_NAME": "WHISTLER PLACE PARK", "SUBURB": "PALLARA", "POWER_TYPE": "MAINS POWER", "NUMBER_OF_PLATES": 2, "LONG": 153.01726978900001, "LAT": -27.607681661000001 }, "geometry": { "type": "Point", "coordinates": [ 153.017269789000011, -27.607681660999958 ] } },
{ "type": "Feature", "properties": { "OBJECTID": 203, "SAP_EQUIPMENT": "100290211", "ITEM_DESCRIPTION": "BBQ - ELECTRIC DOUBLE", "ITEM_TYPE": "BARBEQUE", "SAP_FUNCTIONAL_LOCATION": "B-RE-1542-N005", "PARK_NUMBER": "D0699", "PARK_NAME": "HERCULES STREET PARK", "SUBURB": "HAMILTON", "POWER_TYPE": "MAINS POWER", "NUMBER_OF_PLATES": 2, "LONG": 153.06953517700001, "LAT": -27.439097515999901 }, "geometry": { "type": "Point", "coordinates": [ 153.069535177000034, -27.439097515999947 ] } },
{ "type": "Feature", "properties": { "OBJECTID": 204, "SAP_EQUIPMENT": "200480668", "ITEM_DESCRIPTION": "BBQ - WOOD SINGLE", "ITEM_TYPE": "BARBEQUE", "SAP_FUNCTIONAL_LOCATION": "B-RE-2019-N001", "PARK_NUMBER": "D0304", "PARK_NAME": "STRICKLAND TERRACE PARK", "SUBURB": "SHERWOOD", "POWER_TYPE": "WOOD FIRED", "NUMBER_OF_PLATES": 1, "LONG": 152.98975313400001, "LAT": -27.528676748 }, "geometry": { "type": "Point", "coordinates": [ 152.989753134000011, -27.528676747999953 ] } },
{ "type": "Feature", "properties": { "OBJECTID": 205, "SAP_EQUIPMENT": "100296488", "ITEM_DESCRIPTION": "BBQ - GAS DOUBLE", "ITEM_TYPE": "BARBEQUE", "SAP_FUNCTIONAL_LOCATION": "B-RE-2900-N004", "PARK_NUMBER": "D2274", "PARK_NAME": "WARRIL PARKLAND", "SUBURB": "LARAPINTA", "POWER_TYPE": "BOTTLED GAS", "NUMBER_OF_PLATES": 2, "LONG": 153.00341092599999, "LAT": -27.650927662000001 }, "geometry": { "type": "Point", "coordinates": [ 153.003410926000015, -27.650927661999958 ] } },
{ "type": "Feature", "properties": { "OBJECTID": 206, "SAP_EQUIPMENT": "100301993", "ITEM_DESCRIPTION": "BBQ - ELECTRIC SINGLE", "ITEM_TYPE": "BARBEQUE", "SAP_FUNCTIONAL_LOCATION": "B-RE-0034-N001", "PARK_NUMBER": "D1123", "PARK_NAME": "MINDONA ROTARY PARK", "SUBURB": "WISHART", "POWER_TYPE": "MAINS POWER", "NUMBER_OF_PLATES": 1, "LONG": 153.10393738400001, "LAT": -27.5560633599999 }, "geometry": { "type": "Point", "coordinates": [ 153.103937384000119, -27.556063359999939 ] } },